stop_name,stop_id,stop_lat,stop_lon
(Theneyuru)I Basapura Gate,306,13.22602,77.83624
10th Cross Magadi Road,3ow,12.97574,77.55706
10th Cross Magadi Road,43a,12.97556,77.55562
10th Stone NICE Road,17,12.87242,77.49865
10th Stone NICE Road,64m,12.87273,77.4986
11th Block Anjanapura,4q9,12.85225,77.57235
11th Block Anjanapura,687,12.85224,77.57265
12th Block Nagarabhavi,1rs,12.96018,77.51398
12th Block Nagarabhavi,4h2,12.96076,77.51351
12th Main 7th Cross BTM Layout,2am,12.91385,77.61022
13th Main 7th Cross BTM Layout,29b,12.91405,77.61007
14th Main HSR Layout,6du,12.91746,77.63812
14th Main HSR Layout,6gg,12.91637,77.63472
14th Main HSR Layout,z0,12.91619,77.63521
16th Main Hopcoms BTM Layout,1le,12.91971,77.61036
17th Main Hopcoms BTM Layout,2it,12.91953,77.61028
18th Main Jayanagara,3ls,12.92343,77.58964
18th Main Jayanagara,uv,12.92328,77.58898
19th Main 13th Cross HSR Layout,20y,12.91593,77.65176
19th Main 13th Cross HSR Layout,694,12.91582,77.65175
1st Block Rajajinagara,3i6,13.00515,77.54887
1st Block Rajajinagara,68,13.0047,77.54909
1st Block Vidyaranyapura,1ml,13.07023,77.55539
1st Block Vidyaranyapura,320,13.07021,77.5555
1st Block Vishweshwaraiah Layout,3hr,12.93747,77.47876
1st Block Vishweshwaraiah Layout,5yo,12.93752,77.4789
1st Cross Magadi Road,1l5,12.97569,77.563
1st Cross Magadi Road,4si,12.97569,77.5628
1st Main Kodichikkanahalli,5fa,12.89854,77.61543
1st Main Kodichikkanahalli,y4,12.89847,77.6155
1st Stage 3rd Block Nagarabhavi,32g,12.9533,77.52158
1st Stage 3rd Block Nagarabhavi (Nayandahalli),1xi,12.95302,77.52026
1st Stage 3rd Block Nagarabhavi (Summanahalli),57k,12.95286,77.52017
1st Stage HBR Layout,5sd,13.02116,77.6263
2nd Stage  H B R Layout (2nd Cross),4u6,13.03172,77.61208
2nd Stage 11th Block Nagarabhavi,1zk,12.97754,77.51333
2nd Stage 11th Block Nagarabhavi,4ae,12.97758,77.51336
2nd Stage 9th Block Nagarabhavi,70,12.96864,77.51027
2nd Stage H B R Layout (1st Main),n9,13.02881,77.61556
2nd Stage Kanteeravanagara,67j,13.01505,77.53901
2nd stage Kuvempunagara,4rl,13.07313,77.54132
2nd stage Kuvempunagara,pn,13.07306,77.54142
3rd Block Jayanagara,4eb,12.9318,77.58392
3rd Block Jayanagara,wy,12.93349,77.58396
3rd Block Jn Banashankari 6th Phase,1xv,12.87818,77.51651
3rd Block Jn Banashankari 6th Phase,3gf,12.87821,77.51657
3rd Block Vidyaranyapura,2rh,13.07223,77.55637
3rd Block Vidyaranyapura,3da,13.07237,77.55647
3rd Main Road Annapoorneshwarinagara,4x0,12.97816,77.50434
3rd Main Road Annapoorneshwarinagara,ou,12.97811,77.50446
3rd Stage Basaveshwaranagara,44,12.98898,77.54254
4th Block HBR Layout,1ql,13.03435,77.63264
4th Block HBR Layout,59h,13.03437,77.63268
4th Phase Yalahanka New Town Iyengar Bakery,o1,13.1042,77.56999
4th Stone NICE Road,1v4,13.009,77.47509
4th T Block Jayanagara,17q,12.92307,77.59353
4th T Block Jayanagara,66z,12.92308,77.59345
5th Block HBR Layout,2pn,13.03582,77.6315
5th Block HBR Layout,2to,13.03585,77.63142
5th Block Jayanagara,39j,12.91732,77.58368
5th Block Jayanagara,6bd,12.91722,77.58356
5th Block Vishweshwaraiah Layout,1op,12.95838,77.4816
5th Cross Magadi Road,3a8,12.97578,77.56071
5th Cross Magadi Road,5w2,12.97567,77.56081
5th Cross Sriramapura,24s,12.99214,77.56647
5th Phase Yelahanka New Town,2be,13.10575,77.57251
5th Stone NICE Road,3d4,12.97117,77.47148
6th Block Rajajinagara,434,12.97944,77.55359
6th Block Rajajinagara,4av,12.97953,77.55377
7th Cross Srirampura,5yc,12.99051,77.56787
7th Cross Wilson Garden,19q,12.94684,77.59465
7th Cross Wilson Garden,6h,12.94699,77.59436
80 feet Road Kalyananagara,wi,13.02564,77.6406
80 feet Road Kalyananagara,yh,13.02546,77.64042
80ft Road Banasawadi,21r,13.01511,77.64267
80ft Road Banasawadi,2ge,13.01538,77.6429
80ft Road HRBR Layout,252,13.02035,77.64328
80ft Road HRBR Layout,6dh,13.02095,77.64317
80ft Road MS Ramaiah College,4ep,13.02752,77.57571
8th Main 3rd Cross  Junction,17y,13.02248,77.63714
8th Main 3rd Cross  Junction,64w,13.02254,77.63723
8th Main Kamalanagara,5ij,12.99163,77.53839
8th Main Kamalanagara,ey,12.99178,77.53856
8th Mile Dasarahalli,1kp,13.04544,77.50547
8th Mile Dasarahalli,1qg,13.04622,77.50755
8th Mile Dasarahalli,1wq,13.04547,77.50553
8th Mile Dasarahalli,6fs,13.0451,77.50748
8th Mile Dasarahalli,eo,13.04571,77.50753
8th Mile Dasarahalli,yw,13.04541,77.50795
9th Block Jayanagara,1te,12.91964,77.5928
9th Block Jayanagara (40th Cross),467,12.91969,77.59247
9th Stone NICE Road,5i8,12.88789,77.48532
A G Export Garments Nelamangala,2ib,13.12048,77.39242
A G Export Garments Nelamangala,33w,13.12046,77.39237
A P J Abdul Kalam Statue,20l,12.97972,77.65404
A P J Abdul Kalam Statue,2yj,12.97977,77.65418
ADMC Quarters Office,5ia,13.00438,77.64131
AECS Dental College,4gv,12.86541,77.59832
AECS Dental College,8s,12.86534,77.59831
AECS Layout Cross,3ny,12.96495,77.71832
AECS Layout Cross,53v,12.96511,77.71827
AECS Layout Singasandra,2k8,12.88286,77.65018
AECS Layout Singasandra,34x,12.88306,77.64991
AGS Layout,4fh,12.95163,77.47921
AGS Layout,4m8,12.95173,77.47919
AGS Layout Arehalli,40t,12.91252,77.53704
AGS Layout Arehalli,ol,12.91244,77.53703
AGS Layout Cross,2vu,12.91347,77.54088
AGS Layout Cross,413,12.91353,77.54088
AIR FORCE Quarters,5r8,13.05899,77.52141
AIR FORCE Quarters,6cq,13.05895,77.52139
AL Ameen Residential School,1cc,13.0696,77.80836
AL Ameen Residential School,1j5,13.06983,77.80832
AL-Agro Factory,3yj,12.98697,77.88059
AMC College,58e,12.82933,77.58759
AMC College,5lh,12.83007,77.5878
APCO Factory,3c2,12.76209,77.47036
APCO Factory,5t5,12.76195,77.47044
APMC Yard,2sv,13.10488,77.44388
APMC Yard,6mo,13.10494,77.44396
APS College,1y2,12.78266,77.49952
APS College,2c5,12.78276,77.49966
ARMY PUBLIC SCHOOL (Parachute Regiment),2gx,13.01651,77.58615
ARMY Public School ASC Center,hk,12.96467,77.61808
ASC Centre,1ns,12.96224,77.61901
ASC Centre,6gw,12.96245,77.61906
Aane Kempegowdana Doddy,l0,12.86152,77.33503
Aane Kempegowdana Doddy,ui,12.86158,77.33503
Abbaiah Circle Sarjapura,317,12.85974,77.79402
Abbaiah Circle Sarjapura,sm,12.85976,77.79411
Abbaiah Layout,620,12.97933,77.68082
Abbaiah Layout,gh,12.97928,77.68081
Abbanakuppe,1sd,12.77419,77.4095
Abbanakuppe,3d8,12.77413,77.40941
Abbanakuppe Colony,2zz,12.77123,77.41632
Abbanakuppe KEB,9g,12.78762,77.42868
Abbigere,14d,13.07692,77.52589
Abbigere,4hx,13.07696,77.52587
Abbigere Cross,3u3,13.07068,77.52974
Abbigere Cross,vc,13.07069,77.52976
Abbigere Dinne,3j1,13.07106,77.52803
Abbigere Dinne,5ep,13.07099,77.52801
Abbigere Gate,18,13.07248,77.52353
Abbigere Gate,sc,13.07243,77.52355
Acharya College,2oz,13.00238,77.48823
Acharya College,32e,13.00234,77.48822
Acharya Institute of Technology,36a,13.08351,77.48416
Acharya Institute of Technology,5si,13.08353,77.48411
Achyuthanagara Gate,4c6,13.08418,77.48655
Achyuthanagara Gate,6ow,13.08423,77.48656
Active Public School Hommadevanahalli,kp,12.8402,77.59467
Adakamaranahalli (Magadi Road),60u,12.94713,77.31054
Adakamaranahalli Cross (Magadi Road),4m5,12.95438,77.30922
Adakamaranahalli Cross (Magadi Road),85,12.95436,77.30902
Adakimaranahalli,20v,13.07028,77.44482
Adakimaranahalli,2me,13.06989,77.44532
Adakimaranahalli,41d,13.07065,77.4449
Adakimaranahalli,at,13.06486,77.4433
Adarshanagara,4w2,13.07619,77.42374
Adarshanagara,am,13.07621,77.42378
Adarshanagara Water Tank,696,13.07467,77.42052
Adde Vishwanathapura,164,13.18672,77.55112
Adde Vishwanathapura,49t,13.18669,77.5511
Addiganahalli,1x4,13.17297,77.56943
Addiganahalli,6lt,13.17295,77.56959
Addiganahalli Extension,31h,13.1728,77.57126
Addiganahalli Extension 1,4zq,13.17288,77.57123
Adigara Kallahalli,2xc,12.82534,77.8033
Adigondanahalli,385,12.81456,77.75126
Adigondanahalli,re,12.81457,77.75116
Adishwara Bombay Dying,vl,13.02126,77.55609
Aditya Bakery,49n,12.90351,77.51076
Aditya Bakery,5tf,12.9035,77.51067
Ado Sonnahatti,3r0,12.77796,77.71546
Adrsha Savana,2q5,13.20859,77.60381
Adugodi,4ms,12.94397,77.60748
Adugodi,5oj,12.94384,77.60761
Adugodi,5yu,12.94387,77.6077
Adugodi Police Station,1xx,12.93897,77.60976
Adugodi Police Station,8r,12.93985,77.6095
Aduru,2nf,12.73311,77.657
Aduru,2vb,12.73301,77.6544
Aduru,3gw,13.05552,77.70576
Aduru,56e,13.05542,77.70589
Aduru,5iw,12.73303,77.65433
Aerospace Bagalur,5ce,13.17277,77.73058
Aerospace Bagalur,5fr,13.17289,77.73066
Agalakote,1fg,13.21292,77.73612
Agalakote,1nn,13.21287,77.73615
Agara,14f,12.84288,77.48626
Agara,1dd,12.84479,77.48713
Agara,4s5,12.84477,77.48709
Agara,5m9,12.8429,77.4863
Agara Cross,3s2,12.84915,77.52219
Agara Cross,5mx,12.84899,77.52207
Agara Junction,2cu,12.92464,77.64937
Agara Junction,308,12.92417,77.65075
Agara Junction,3v,12.9239,77.65172
Agara Junction,5kv,12.92452,77.65028
Agara Junction,r2,12.92433,77.65073
Agara Junction,sb,12.92468,77.64998
Agrahara Dasarahalli,4v9,12.97874,77.54121
Agrahara Dasarahalli,5jg,12.97853,77.54293
Agrahara Layout,3gz,13.09837,77.62683
Agrahara Layout,40v,13.09838,77.62671
Agrahara Layout Cross,39x,13.10248,77.6277
Agraharapalya Gate,281,13.13075,77.45348
Ainahalli,4gt,13.25852,77.38764
Air Lines Dhaba Gate,33s,13.22276,77.74085
Air Lines Dhaba Gate,488,13.2225,77.74086
Airport Trumpet,2zn,13.19908,77.65792
Airport Trumpet,461,13.19905,77.6582
Ajjagondanahalli,25s,12.95709,77.7684
Ajjagondanahalli,6gu,12.95708,77.7684
Ajjanahalli,1ts,12.9167,77.3865
Ajmeer Apartment Neeladri Road,3vo,12.84185,77.64673
Ajmeer Apartment Neeladri Road,5u5,12.84181,77.64675
Akkayammana Betta,5y7,13.16162,77.64223
Akkayammana Betta Huttanahalli Cross,3v2,13.16165,77.64227
Akkipete Devanahalli,1r,13.25413,77.67796
Akkithimmanahalli,3dr,12.96216,77.59674
Akkithimmanahalli 1,299,12.96221,77.59649
Akshayanagara,3df,13.02068,77.68354
Akshayanagara,4qf,13.02072,77.68339
Akshayanagara New Town,5yw,12.87657,77.61166
Akshayanagara New Town,60z,12.87657,77.61101
Aladamara Chikkanahalli Cross,4so,12.72809,77.64804
Aladamara Chikkanahalli Cross,6m6,12.72796,77.64801
Aladamara Laggere,10a,13.0133,77.521
Aladamara Laggere,10f,13.01324,77.52099
Aladamara Papareddypalya,2cw,12.97505,77.50941
Aladamara Papareddypalya,u8,12.97495,77.50948
Alahalli,6aq,13.2775,77.52152
Alahalli,lk,13.27755,77.52143
Alambadi,2kx,12.8927,77.88656
Alambadi,359,12.89273,77.88659
Alanayakanahalli Gate,2s7,13.18089,77.32413
Alanayakanahalli Gate,589,13.18069,77.32407
Ali Bommasandra,6nh,12.82033,77.73644
Alisda,2ym,13.03392,77.54098
Alisda,3fr,13.03404,77.54112
Aliyuru,419,13.263,77.76564
Allalasandra,5c4,13.08818,77.58868
Allalasandra,au,13.08819,77.58864
Allalasandra Gate,12x,13.08534,77.59437
Allalasandra Gate,1xb,13.08664,77.59375
Allalasandra Gate,1ze,13.08686,77.59386
Allalasandra Gate,64,13.08737,77.59557
Allalasandra Gate,6j3,13.08448,77.59386
Alpha College Chikka Gubbi,1bq,13.077,77.66202
Alpha College Chikka Gubbi,5q7,13.07702,77.662
Alphine Apartment,4zv,13.06649,77.5765
Aluru,4np,13.08495,77.46551
Aluru,y3,13.0849,77.46561
Aluru BDA 2nd Stage,29,13.09138,77.44998
Aluru Cross,1h3,13.0824,77.47479
Aluru Cross,5mo,13.08236,77.47477
Alurupalya,3p,13.09717,77.47063
Amarajyothi Badavane,5sx,13.05525,77.62932
Amarajyothi Badavane,fm,13.05526,77.62929
Amba Bhavani Nagara,1f6,13.09712,77.54599
Amba Bhavani Nagara,2q6,13.09721,77.54594
Ambalagere,159,13.24327,77.38658
Ambedkar Institute of Technology,3wi,12.96338,77.50515
Ambedkar Institute of Technology,6ee,12.96319,77.50502
Ambedkar Medical College Shampura,67,13.02327,77.6126
Ambedkar Nagara,1n0,12.89929,77.71273
Ambedkar Nagara,355,12.89914,77.71286
Ambika School,6ch,13.15775,77.33719
Ambika School,6h7,13.15775,77.33712
Amma Ashrama Cross,1ej,12.94936,77.48882
Amma Ashrama Cross,366,12.94958,77.48867
Amogha Layout,uq,13.07509,77.71806
Amogha Layout,y5,13.07507,77.71818
Amritha Ayurvedic Hospital,370,13.12485,77.54721
Amruth Sweets,14c,12.90926,77.64147
Amruth Sweets,5h5,12.90921,77.64153
Amrutha Engineering College,5nt,12.8968,77.6752
Amrutha Engineering College,5wz,12.89566,77.67471
Amrutha Engineering College,ys,12.89689,77.67517
Amruthahalli,1dq,13.06576,77.60081
Amruthahalli,4j3,13.06574,77.60076
Amruthanagara,5u,12.83943,77.54995
Amruthanagara,ny,12.83939,77.54993
Amruthanagara Canara Bank,3nx,13.05506,77.59974
Amruthanagara Canara Bank,574,13.05518,77.59969
Amruthanagara Hebbala,1cw,13.05598,77.59791
Anagalipura,4en,13.06838,77.68241
Anagalipura,5v4,13.06842,77.68234
Anagalipura Gate,3ug,13.07306,77.67885
Anagalipura Gate,4q8,13.07303,77.67888
Ananda Ashrama (BGT Rd),2wx,12.9275,77.60062
Ananda Ashrama (BGT Rd),30p,12.92644,77.60037
Ananda Rao Circle,1vy,12.98117,77.57694
Ananda Rao Circle,23y,12.98115,77.57466
Ananda Rao Circle,6ar,12.98074,77.57503
Anandanagara,ze,12.9838,77.24209
Anandapura,23w,13.0241,77.6927
Anandapura,41e,13.02423,77.69285
Ananthapura,26p,13.11475,77.56709
Ananthapura,yp,13.11478,77.56708
Ananthapura Gate,21l,13.1146,77.57901
Ananthapura Gate,5ew,13.11478,77.57907
Anche Muskuru,1z4,12.90452,77.8678
Anche Muskuru,274,12.9043,77.86795
Anchepalya,32n,13.05497,77.47936
Anchepalya,39t,12.89261,77.45795
Anchepalya,3tq,12.8926,77.45753
Anchepalya,6mc,13.05529,77.47983
Anchipura,1m7,12.77008,77.43196
Anchipura,2iu,12.77061,77.43203
Anchipura Colony,1fv,12.76763,77.43855
Anchipura Colony,41g,12.76759,77.43854
Anchipura Cross,17x,12.79006,77.44125
Anchipura Cross,1we,12.79009,77.44125
Andhrahalli,1dl,13.00802,77.48484
Andhrahalli,4ql,13.00805,77.48484
Andhrahalli Gate,2cs,13.11542,77.74525
Andhrahalli Gate,592,13.11545,77.74529
Andhrahalli Govt School,31z,13.00952,77.48294
Andhrahalli Govt School,4hk,13.00956,77.48295
Ane Hosahalli Gate,3c0,12.62071,77.51387
Anehalla,rt,12.97983,77.24132
Anekal,2w2,12.70939,77.69641
Anekal Circle,334,12.71674,77.70009
Anekal Circle,6kv,12.71677,77.70018
Anekal Road Junction,57d,12.76853,77.77016
Anekal Road Junction,6ha,12.76837,77.77016
Anepalya,19m,12.95289,77.60532
Anepalya,zq,12.95303,77.60518
Anjan Vidya Kendra School,4rb,12.92427,77.82438
Anjanamurthy,64c,13.04511,77.57437
Anjananagara,1x8,12.98614,77.48847
Anjananagara,5t4,12.98617,77.48817
Anjanapura,4c2,12.86196,77.56393
Anjanapura,5xu,12.862,77.56385
Anjanapura,nd,12.86196,77.56381
Anjanapura 10 Block,12h,12.85601,77.569
Anjanapura 10th  Block,3zr,12.85561,77.5706
Anjanapura 10th Block,2j1,12.85593,77.56907
Anjanapura 1st Block,2gg,12.86001,77.54817
Anjanapura 2nd Block,2b1,12.86573,77.55245
Anjanapura 2nd Block,6cv,12.86563,77.55253
Anjanapura 2nd Block Cross (LBSN),3o8,12.86054,77.55939
Anjanapura 2nd Block Cross (LBSN),49r,12.86053,77.55945
Anjanapura Cross,4sd,12.86183,77.56091
Anjanapura Cross,qb,12.86183,77.56083
Anjaneya Temple Anekal,15v,12.7173,77.70046
Anjaneya Temple Anekal,2ue,12.71729,77.70025
Anjaneya Temple Bidaraguppe,3uq,12.80131,77.78276
Anjaneya Temple Bidaraguppe,90,12.80086,77.78283
Anjaneya Temple Devanahalli,43w,13.2351,77.71302
Anjaneya Temple Devanahalli,492,13.23506,77.713
Anjaneya Temple Madhure,3lj,13.20992,77.44487
Anjaneya Temple Madhure,lt,13.20998,77.44486
Anjaneya Temple Nelamangala,1ge,13.09723,77.39774
Anjaneya Temple Nelamangala,vn,13.09737,77.39777
Anjaneya Temple Thigalarapalya,4mv,13.01371,77.48343
Anjaneya Temple Thigalarapalya,4re,13.01372,77.48347
Ankanahalli,1ca,13.20433,77.79838
Ankanahalli,6lg,13.20433,77.79846
Ankegowdana Doddy,4i,12.70677,77.51728
Ankegowdana Doddy,4r2,12.70677,77.51733
Annahalli,2u,12.69958,77.38452
Annapoorneshwari nagara Cross,403,12.96998,77.49655
Annapoorneshwarinagara,3nw,12.98077,77.50687
Annapoorneshwarinagara,6l2,12.98002,77.50667
Annapoorneshwarinagara Cross,69d,12.97002,77.49658
Annapoorneshwarinagara Water Tank,223,12.97203,77.49697
Annapoorneshwarinagara Water Tank,3qt,12.97196,77.49702
Annapurneshwari Badavane,32y,13.13874,77.50802
Annapurneshwari Badavane,7i,13.13879,77.50799
Annasandrapalya,330,12.96444,77.67252
Annasandrapalya,602,12.96444,77.67236
Annasandrapalya Cross,2n3,12.96039,77.66622
Annasandrapalya Cross,3oe,12.96044,77.66607
Anneshwara Circle,5og,13.2153,77.71054
Anneshwara Circle,5x5,13.21535,77.71058
Anubhavanagara,5xl,12.96778,77.5238
Anugondanahalli,2vl,12.95716,77.81546
Anugondanahalli,4c8,12.95726,77.81527
Anugondanahalli Cross,3zo,12.95894,77.81583
Anugondanahalli Cross,6ie,12.95895,77.81599
Anugraha Badavane (Bilekahalli),536,12.90302,77.60892
Anupahalli,3jh,13.21548,77.85612
Aparel Park,1mo,13.27257,77.55193
Aparel Park,1xh,13.27266,77.55205
Apex Bank,11f,12.94183,77.55567
Apex Bank,3yo,12.94177,77.55602
Apollo Hospital,28f,12.89662,77.6
Apollo Hospital,3lq,12.89635,77.59972
Appasandra,6gi,13.06317,77.89659
Aradeshanahalli,18m,13.22244,77.56364
Aradeshanahalli,4kv,13.22247,77.56361
Aradeshanahalli Gate,3y9,13.21637,77.55258
Aradeshanahalli Gate,613,13.21648,77.55266
Arahalli,4in,13.22301,77.9487
Arakere Byrapura,1ii,13.20062,77.5393
Arakere Byrapura,460,13.20064,77.53932
Arakere Gate,3w1,12.89057,77.59804
Arakere Gate,v5,12.89053,77.59817
Aralalusandra,1nm,12.73311,77.45385
Aralalusandra,62b,12.73314,77.45381
Aralalusandra Cross,55i,12.74337,77.46289
Aralalusandra Cross,5pq,12.74341,77.46301
Aralimara (PK Kalyana Mantapa ),1y,12.88003,77.62459
Aralimara (PK Kalyana Mantapa ),oc,12.87985,77.62456
Aralimara Hosahalli,31i,13.14039,77.64126
Aralimara Hosahalli,4wi,13.14043,77.64128
Aralimara Industrial Area  Rajajinagara,3oy,12.97859,77.54909
Aralimara Industrial Area  Rajajinagara,546,12.97857,77.54871
Aralimara Sunkadakatte,217,12.99209,77.50467
Aralimara Ullalu,ko,12.95768,77.48731
Aralimaradapalya,5ri,12.9297,77.36468
Aralimaradapalya Cross,38o,12.92663,77.35998
Aralimaradapalya Cross,6cd,12.92656,77.36
Aralumallige,3wv,13.27367,77.50939
Aralumallige,6nj,13.27372,77.50935
Arasanahalli,2kk,13.20152,77.79732
Arasanahalli,67c,13.20148,77.79737
Arasanahalli,9n,12.96478,77.88863
Arathipalya,2jo,13.03724,77.42593
Arathipalya,35y,13.03724,77.42601
Aravinda Limited,1iy,12.81485,77.67002
Aravinda Limited,5kp,12.81475,77.67016
Arch Lingadeeranahalli,1eb,12.99962,77.48869
Arch Lingadeeranahalli,44w,12.99961,77.48872
Arch Railway Gollahalli,16l,13.1482,77.41192
Arch Railway Gollahalli,2kd,13.14818,77.41187
Archakara Badavane,10k,12.91876,77.45237
Archakara Badavane,4cm,12.91878,77.45255
Are Bannimangala,3az,13.154,77.71759
Are Bannimangala,3t4,13.15398,77.71757
Are bannimangala Cross,2k2,13.15681,77.71965
Are bannimangala Cross,338,13.15676,77.71953
Arebic College,11s,13.03049,77.62121
Arebic College,6my,13.02992,77.62084
Arehalli,10t,12.76352,77.76729
Arehalli,1ls,12.90849,77.53855
Arehalli,1pn,13.26528,77.56541
Arehalli,2lb,12.93738,77.82992
Arehalli,3n4,12.90857,77.53841
Arehalli,49q,12.93828,77.83035
Arehalli,jv,12.76327,77.76696
Arehalli Cross,4l0,12.94227,77.83669
Arehalli Cross,69r,12.94222,77.83665
Arenur,1pm,12.80975,77.7749
Arenur,29n,12.80984,77.77503
Arishinakunte,1gl,13.07966,77.42419
Arishinakunte,3ik,13.08026,77.42417
Arishinakunte,4tq,13.20051,77.77355
Arishinakunte,56s,13.2008,77.77368
Arishinakunte  Toll,6ix,13.0799,77.42487
Arivesandra,2fd,13.18506,77.32518
Arivesandra,3rh,13.18504,77.32512
Army Public School Kamaraja Road,1ce,12.97871,77.60941
Arogya Dhama,1cx,13.07838,77.35297
Art Of Living,1hp,12.82261,77.5141
Art Of Living (Kanakapura Road),2vy,12.82279,77.51415
Art Of Living Ravishankar Ashram,2vt,12.82863,77.51255
Art Of Living Ravishankar Ashram,7m,12.82883,77.51259
Ashoka Pillar,1vb,12.94367,77.58496
Ashoka Pillar,4ro,12.94322,77.58529
Ashoka Pillar,rj,12.94249,77.58515
Ashoka Polytechnic,38j,13.06557,77.53308
Ashoka Polytechnic,3jl,13.06553,77.53307
Ashrama Ramohalli,1vx,12.9063,77.42886
Ashrama Ramohalli,54l,12.90617,77.42892
Ashwath Nagara,3vb,13.05274,77.63125
Ashwath Nagara,58i,13.05289,77.63144
Ashwath Nagara Cross,m5,13.05075,77.63067
Ashwath Nagara Cross,ob,13.05078,77.63054
Ashwathkatte Kodihalli,2bf,13.01858,77.81063
Ashwathkatte Kodihalli,k5,13.0186,77.81054
Ashwathkatte Manorayanapalya,300,13.02798,77.60453
Ashwathkatte Manorayanapalya,a4,13.02795,77.60448
Ashwathkatte Sultanpalya,1x,13.0246,77.60341
Ashwathkatte Sultanpalya,5bp,13.02459,77.60346
Ashwathnagara,25b,13.02679,77.57984
Ashwathnagara,57v,13.02691,77.57973
Ashwathnagara,5ix,13.02696,77.57971
Asian Paints Dabaspet,5jv,13.23008,77.27239
Aspire bee School,ms,12.87915,77.72373
Athimagere Gate,3ca,12.87458,77.28357
Attibele,2uk,12.77799,77.76984
Attibele,pk,12.77787,77.76968
Attibele Bus Stand,1h9,12.77958,77.77061
Attibele Bus Stand,44k,12.77865,77.77077
Attibele Bus Stand,5mj,12.77954,77.77046
Attibele Bus Stand,pz,12.77896,77.77086
Attibele Sulibele,556,13.16987,77.79388
Attibele Sulibele,59i,13.1698,77.79387
Attiguppe,24g,12.95787,77.53446
Attiguppe,4gh,12.95809,77.53395
Attiguppe,6h1,12.95789,77.53385
Attiguppe,l1,12.95783,77.53435
Attivatta,2mg,13.08812,77.85348
Attivatta Gate,19,13.09724,77.85527
Attivatta Gate,215,13.09743,77.85521
Atturu,2xe,13.10653,77.56578
Atturu,3i8,13.09877,77.85841
Atturu,50l,13.10649,77.56577
Atturu,5fl,13.09855,77.85864
Atturu Layout,15z,13.09789,77.56707
Atturu Layout,49u,13.09778,77.56763
Atturu Layout,75,13.09793,77.56753
Atturu Layout Vegetable Market,2qe,13.10082,77.56687
Atturu Layout Vegetable Market,5y2,13.10079,77.56685
Austin Town,1jx,12.96156,77.61344
Austin Town,466,12.96153,77.61456
Austin Town Neelasandra,66e,12.9616,77.61254
Auto Gas/Royal School,41l,12.90133,77.58585
Avadadenahalli Gate,1mg,12.74668,77.70779
Avadadenahalli Gate,2hg,12.74649,77.7078
Avalahalli,1yh,12.87293,77.56665
Avalahalli,5l3,13.13538,77.56924
Avalahalli,653,12.87275,77.56653
Avalahalli,6i1,13.13522,77.56915
Avalahalli,6kf,12.87276,77.56657
Avalahalli BDA Layout,1ne,12.87222,77.56118
Avalahalli BDA Layout,6ht,12.87386,77.56153
Avalahalli BDA Layout,fx,12.87383,77.56154
Avalahalli BDA Park Girinagara,1ae,12.94332,77.54271
Avalahalli BDA Park Girinagara,1sq,12.94328,77.54311
Avalahalli Electronic City,3r4,12.86957,77.71163
Avalahalli Electronic City,6lq,12.86966,77.71175
Avalahalli Hosakote,2l0,13.03591,77.73531
Avalahalli Hosakote,395,13.0355,77.73575
Avalahalli Hosakote,55g,13.03605,77.7358
Avalahalli New BDA Layout,2l3,12.94341,77.53685
Avalahalli New BDA Layout,6at,12.9434,77.53675
Avalakuppe Cross,1ak,13.02384,77.34843
Avalakuppe Cross,30z,13.02376,77.34841
Avaragere,5qc,12.82007,77.38086
Avaragere Cross,2f3,12.80957,77.37782
Avaragere Cross,da,12.80962,77.37784
Avarehalli,670,12.89926,77.33696
Avasarala Factory Kanakapura Road,5py,12.78204,77.49265
Avathi,1y3,13.29638,77.72579
Avathi,55n,13.29627,77.7256
Avathi,60j,13.29642,77.72582
Avathi,ab,13.29633,77.72548
Averahalli,4nz,13.03503,77.41612
Averahalli,4o2,13.03508,77.41617
Averahalli Cross,13f,13.04391,77.4149
Averahalli Cross,1ei,13.03343,77.42184
Averahalli Cross,3u1,13.03337,77.42186
Averahalli Cross,6mr,13.04392,77.41493
Avinash Petrol Bunk,3yg,12.99045,77.58862
Ayurvedic Hospital Bodhanahosahalli,46d,12.96962,77.80022
Ayurvedic Hospital Bodhanahosahalli,qv,12.96969,77.8004
Ayyappa Nagara  Sadaramangala,3qx,13.00426,77.70997
Ayyappa Nagara Muneshwara Temple Sadaramangala,11n,13.00445,77.71243
Ayyappa Nagara Muneshwara Temple Sadaramangala,3rm,13.00451,77.7124
Ayyappa Nagara Sadaramangala,6fz,13.00431,77.71002
Ayyappa School Kereguddadahalli,344,13.07468,77.517
Ayyappa Temple Jalahalli Cross,47z,13.0461,77.52231
Ayyappa Temple Jalahalli Cross,5k8,13.04623,77.52243
Ayyappa Temple Yashawanthapura,1io,13.02159,77.56316
Ayyappa Temple Yashawanthapura,24e,13.02167,77.56321
Ayyappaswamy Temple Madivala,28p,12.92478,77.61791
Aziz Palya,1aj,13.02712,77.36696
B Channasandra,1ba,13.01,77.6576
B Channasandra,2in,13.0102,77.6576
B Channasandra,3ri,13.01006,77.6575
B Channasandra Bridge(Ramamurthy Nagara Ring Road),1g1,13.01128,77.66242
B Channasandra Bridge(Ramamurthy Nagara Ring Road),1gg,13.01329,77.66193
B Channasandra Bridge(Ramamurthy Nagara Ring Road),1z8,13.01318,77.66272
B Channasandra Bridge(Ramamurthy Nagara Ring Road),46b,13.01311,77.66257
B Channasandra Bridge(Ramamurthy Nagara Ring Road),4je,13.01229,77.66199
B Channasandra Bridge(Ramamurthy Nagara Ring Road),6fl,13.0112,77.66232
B Channasandra Bridge(Ramamurthy Nagara Ring Road),nb,13.01354,77.66209
B Hosur Circle,1gc,12.7425,77.44816
B Hosur Circle,3,12.74247,77.4482
B Hosur Water Tank,60r,12.74258,77.45109
B Krishnappa Nagara,jt,12.99714,77.40872
B Marenahalli,14x,13.16635,77.73759
B Marenahalli,2x5,13.16626,77.73752
B Marenahalli,3e9,13.17023,77.73952
B Nagasandra,2rk,12.94368,77.65363
B Nagasandra,5ev,12.94367,77.65359
B Narayanapura,2uz,13.00028,77.68415
B Narayanapura,3q5,13.00039,77.68399
B Narayanapura Ring Road,5bb,12.99589,77.68387
B Narayanapura Ring Road,6ga,12.99583,77.68417
B Palya Razakapalya,2wz,13.1444,77.65941
B Palya Razakapalya,3x8,13.14436,77.6594
BCC Layout,5tc,12.95128,77.52978
BCC Layout Cross,2hs,12.95473,77.53486
BCMC Layout Raghuvanahalli,1al,12.87833,77.54947
BCMC Layout Raghuvanahalli,4r,12.87838,77.54934
BDA Complex Banashankari 2nd Stage,26m,12.92448,77.56464
BDA Complex Banashankari 2nd Stage,5p1,12.9247,77.56428
BDA Complex Cross Nagarabhavi,154,12.97199,77.51278
BDA Complex Cross Nagarabhavi,48l,12.97211,77.51293
BDA Complex HBR Layout,126,13.02589,77.62809
BDA Complex HSR Layout,26f,12.91282,77.63805
BDA Complex HSR Layout,641,12.91296,77.63807
BDA Complex Koramangala,1yc,12.93109,77.62248
BDA Complex Koramangala,qc,12.93094,77.62221
BDA Complex Nagarabhavi,2m0,12.97983,77.51054
BDA Complex Nagarabhavi,3wf,12.97938,77.51073
BDA Complex Nagarabhavi,5br,12.97958,77.51064
BDA Flats Kommaghatta,6bj,12.91473,77.46208
BDA Park Bande Maramma Temple,6jv,12.96948,77.5148
BDS Nagara,42p,13.06573,77.64309
BDS Nagara,ij,13.0657,77.64308
BEL Circle,2dk,13.0452,77.55669
BEL Circle,46o,13.04376,77.55806
BEL Circle,4k1,13.04639,77.55583
BEL Circle,5dc,13.04402,77.55489
BEL Circle,5kt,13.04339,77.55713
BEL Circle,5ot,13.04588,77.55654
BEL Factory,4nq,13.04887,77.55861
BEL Hospital,4ij,13.05064,77.55745
BEL Hospital,6ns,13.04987,77.55755
BEL Layout Dasanapura,15n,13.08929,77.42317
BEL Layout Dasanapura,2ys,13.08927,77.4232
BEL Market,13t,13.05189,77.55192
BEL Market 1,5hx,13.05192,77.55193
BEML Complex,42i,12.91952,77.52033
BEML Complex,5v5,12.91973,77.52028
BEML Factory,411,12.97146,77.65908
BEML Gate,a3,12.97146,77.65859
BEML Gate,wa,12.9714,77.65873
BEML Layout 5th stage,2aj,12.90685,77.52137
BEML Layout 5th stage,2vf,12.90684,77.52107
BEML Layout 5th stage,3ln,12.90684,77.52111
BEML Layout Gate,1jv,12.96083,77.71641
BEML Layout Gate,3jb,12.96054,77.7165
BGS College Chikkaballapura,214,13.39551,77.72662
BGS College Chikkaballapura,23x,13.39584,77.72679
BGS College Gate Devagere,1m2,12.84762,77.46871
BGS College Gate Devagere,6ho,12.84759,77.46868
BGS Health City,3mf,12.90313,77.49819
BGS Health City Gate Abhiman Studio,1oc,12.90714,77.49909
BGS Health City Gate Abhiman Studio,30c,12.90706,77.49921
BGS International Residential School,2cv,12.84663,77.46205
BGS PU College Thotagere,2mi,13.14427,77.45146
BGS PU College Thotagere,wr,13.14428,77.45141
BGS School Banandur,2fy,12.77952,77.39727
BGS School Banandur,hc,12.77941,77.39728
BHEL,13i,12.84492,77.66026
BHEL,2d6,12.94874,77.53559
BHEL,2em,12.8452,77.66026
BHEL,9,12.94872,77.53583
BHEL,yd,12.84506,77.65993
BHEL Concord Layout,2t5,12.90822,77.50942
BHEL Layout,4nl,12.91624,77.50835
BHEL Layout Cross,13x,12.91577,77.51103
BHEL Layout Cross,44p,12.91617,77.51305
BHEL Layout Cross,5b0,12.91583,77.51098
BHEL Layout Maramma Temple,xr,12.92192,77.5088
BHEL Layout Water Tank,183,12.91904,77.50901
BHEL Layout Water Tank,6fv,12.91895,77.50906
BIES Kuduregere,1gp,13.06249,77.46974
BK Circle,287,12.87056,77.58309
BK Circle,44b,12.87067,77.58316
BK Circle,6f9,12.87062,77.58325
BME-1 NICE Road,1dn,12.91943,77.53179
BME-1 NICE Road,zo,12.91947,77.53196
BME-2 NICE Road,65j,12.89334,77.51352
BME-2 NICE Road,69z,12.89345,77.51346
BMSIT College Campous Yelahanka,nv,13.1337,77.56811
BMTC Training Centre,4f7,13.01991,77.44837
BMTC Training Centre,5nx,13.01994,77.44841
BN Bachegowda Badavane,39a,12.9627,77.84542
BN Bachegowda Badavane Colony,4k6,12.96279,77.84504
BN Bachegowda Badavane Colony,4nr,12.96278,77.84512
BOB Colony,3pf,12.89299,77.5864
BP Indian School Nelamangala,2mq,13.08764,77.37555
BP Indian School Nelamangala,3ho,13.0877,77.37529
BPL,2g2,12.88691,77.59676
BPL,3wo,12.98531,77.74768
BPL,4wj,12.98525,77.74828
BPL,6c9,12.88702,77.59697
BRV Talkies Cubbon Road,2ic,12.97911,77.60273
BRV Talkies Cubbon Road,3qb,12.97941,77.60223
BSF Yalahanka,5xm,13.12915,77.60494
BSF Yalahanka,6bb,13.12912,77.60492
BTL College,1ez,12.8117,77.69472
BTL College,2yi,12.81185,77.69485
BTM Layout 16th Main,4v3,12.9165,77.60932
BTM Layout 16th Main,647,12.91662,77.60912
BTM Layout 16th Main Road,3yd,12.91627,77.61014
BTM Layout Water Tank,24d,12.91667,77.60718
BTM Layout Water Tank,34z,12.91654,77.60711
BTR Garden,4iz,12.89033,77.64645
BTR Garden,5hb,12.89028,77.64662
BTS Layout Basaveshwaranagara,16g,12.97707,77.48056
BTS Layout Basaveshwaranagara,4pf,12.97704,77.4804
BUC ADM Block,5tx,12.95005,77.50086
BUC ADM Block,6oh,12.95007,77.50069
BUC Ladies Hostel,4lp,12.94174,77.5061
BUC Ladies Hostel,lf,12.94187,77.50602
BUC Library,1v9,12.9443,77.50421
BUC Library,3j9,12.94439,77.50435
BUC Quarters,6gm,12.95203,77.49917
BWSSB Quarters Nayandahalli,22p,12.94013,77.52412
BWSSB Quarters Nayandahalli,yc,12.93987,77.5236
BWSSB Tavarekere,17f,12.97007,77.39937
BWSSB Tavarekere,5e4,12.96999,77.39935
Babusabpalya,2aw,13.0226,77.64702
Babusabpalya,640,13.02274,77.64721
Babusabpalya 302,2hh,13.02285,77.64747
Bachahalli Gate,2hm,13.21205,77.67332
Bachahalli Gate,6l7,13.21219,77.6732
Bachahalli Government School,666,13.24343,77.57954
Bachenahatti,6ji,12.955,77.30395
Bachenahatti,op,12.95476,77.30408
Badekatte,1ay,12.81806,77.48975
Badekatte,1uh,12.8181,77.48975
Badrapura,10n,12.87177,77.42746
Bagalagunte,2af,13.05657,77.50728
Bagalagunte,38m,13.05665,77.50735
Bagalur,3f8,13.13468,77.66816
Bagalur,53q,13.1346,77.6679
Bagalur,bg,13.13453,77.66797
Bagalur Colony,21s,13.14146,77.6713
Bagalur Colony,3w2,13.14146,77.67118
Bagalur Cross,2if,13.12211,77.61116
Bagalur Cross,35o,13.12184,77.61128
Bagalur Cross,5ee,13.12175,77.61129
Bagalur Cross,wk,13.12198,77.61061
Bagalur Santhe,19t,13.13351,77.66675
Bagalur Santhe,1ea,13.13334,77.6668
Bagluru Old police Station,5ks,13.12952,77.66661
Bagluru Old police Station,624,13.12977,77.6667
Bagmane Tech Park,136,12.98065,77.65654
Bagmane Tech Park,af,12.98076,77.65642
Bagmane Tech Park (Graphite India),4et,12.97028,77.70706
Baguru,69g,12.89677,77.84224
Baguru,a6,12.89645,77.84275
Baguru Colony,27z,12.89457,77.8465
Baguru Colony,2dz,12.89469,77.84648
Baladimmanahalli,2l8,13.1898,77.74341
Baladimmanahalli,5w8,13.18959,77.74336
Balaganahalli Cross,35u,12.89314,77.94176
Balageranahalli Cross,1bc,12.78744,77.73468
Balagere,1t3,12.9396,77.72902
Balagere,5ln,12.93963,77.72901
Balaji Badavane Sulikere,10c,12.93565,77.44331
Balaji Badavane Sulikere,1wy,12.93569,77.44328
Balaji Layout,3bv,12.96005,77.48932
Balaji Layout,5c6,12.96002,77.48914
Balaji Layout 100ft Road,3ht,12.87772,77.53984
Balaji Theatre Magadi,4ca,12.96057,77.23686
Balavikas International School,495,12.96696,77.51453
Balavikas School Gidadakonenahalli,58p,12.97008,77.4914
Balekatte,5jc,12.92767,77.21026
Balenahalli,hv,12.89564,77.19349
Balepura,36f,13.19917,77.77892
Balepura,6jn,13.1992,77.77896
Balepura Gate,2sz,13.19786,77.77725
Balepura Gate,3rn,13.19791,77.77734
Balepura Gate,583,13.19764,77.77686
Baleveeranahalli,1cy,13.01854,77.39391
Baleveeranahalli,4ri,13.0186,77.39394
Balluru,bn,12.75424,77.78728
Balluru Cross,2c0,12.74971,77.77934
Balluru Cross,3rd,12.74978,77.77932
Baluvanahalli Cross,4rc,13.26238,77.80811
Bamboo Bazaar,1iq,12.99192,77.60332
Bamboo Bazaar,1m4,12.99208,77.60402
Banahalli,321,13.21376,77.91228
Banandur Circle,55z,12.77536,77.39841
Banandur Circle,t1,12.77538,77.39844
Bananduru,5aa,12.77677,77.3979
Bananduru,5rs,12.77677,77.39795
Banarahalli,6e2,12.95716,77.86284
Banasawadi,26o,13.01452,77.65234
Banasawadi,2et,13.01441,77.65102
Banasawadi 100 Feet Road,1ee,13.01513,77.64963
Banasawadi 100 Feet Road,646,13.01508,77.64969
Banashankari,32,12.91631,77.57373
Banashankari,6r,12.91679,77.57325
Banashankari 1st Stage Muneshwara Block KEB,3go,12.94211,77.55079
Banashankari 1st Stage Muneshwara Block KEB,4jh,12.94213,77.55061
Banashankari 3rd Stage 3rd Phase,3xs,12.92761,77.55125
Banashankari 3rd Stage 3rd Phase,q1,12.92763,77.5514
Banashankari 5th Stage,1sv,12.9022,77.52809
Banashankari Bus Station,16m,12.91765,77.57403
Banashankari Bus Station,3rg,12.91779,77.57272
Banashankari Bus Station,4pb,12.91736,77.5727
Banashankari Hunasemara,3bn,12.92084,77.57414
Banashankari Hunasemara,4jn,12.92097,77.57407
Banashankari Hunasemara,5ti,12.91966,77.57413
Banashankari Post Office,37i,12.92629,77.56991
Banashankari Post Office,3ve,12.92623,77.56995
Banaswadi Fire Station,4sg,13.01131,77.64604
Banawadi,557,13.11756,77.25544
Banawadi,qr,13.11759,77.25546
Bandaiahanapalya,1f7,13.17629,77.45281
Bandaiahanapalya,2jd,13.17612,77.45279
Bandapura,1hc,12.76981,77.72655
Bandapura,2p4,12.76982,77.72653
Bandapura Gate,22x,13.04174,77.74453
Bandapura Gate,5f9,13.04228,77.74459
Bande Bommasandra,39l,13.07664,77.68072
Bande Bommasandra,pp,13.07672,77.6809
Bande Bommasandra Cross,101,13.08122,77.68243
Bande Bommasandra Cross,60l,13.08121,77.68243
Bande Inorpalya,1qi,12.9366,77.36241
Bande Inorpalya,33p,12.93666,77.36236
Bande Kodigehalli,yn,13.17216,77.69082
Bande Kodigehalli palya,1gt,13.17346,77.7061
Bande Kodigehalli palya,6af,13.1735,77.7063
Bande Kodigehallipalya Cross,4yf,13.17275,77.691
Bande Kodigehallipalya Cross,5cy,13.17283,77.69107
Bande Maramma Bus Station,3lh,12.96712,77.51591
Bande Mutt Badavane Radiant Enclave,6nf,12.91277,77.47358
Bande Mutt Gate Kengeri,42o,12.91916,77.47743
Bande Mutt Gate Kengeri,mb,12.91902,77.47752
Bande Mutt Kunchugal,3yc,13.10656,77.25913
Bande kodigehalli,2u2,13.17202,77.69075
Bandi Reddy Circle,3co,12.99141,77.56384
Bandi Reddy Circle,eu,12.99141,77.56389
Bangarappa Nagara,2fs,12.92503,77.52658
Banglow Sulikere,1eq,12.93298,77.45186
Banglow Sulikere,1gw,12.93304,77.45183
Banjara Layout,5h0,13.03832,77.66516
Banjara Layout,5wq,13.03826,77.66533
Banjarapalya,4dg,12.83053,77.4857
Banjarapalya,60s,12.83047,77.48567
Bank Amruthahalli,4qz,13.06604,77.59824
Bank Amruthahalli,6ii,13.06601,77.5983
Bank Circle Bashettyhalli,3r8,13.258,77.55271
Bank Circle Bashettyhalli,4ys,13.25811,77.55281
Bank Colony,1r9,12.93864,77.55305
Bank Colony,tv,12.93861,77.55326
Bannerughatta Circle,2jw,12.81382,77.58103
Bannerughatta Circle,3ma,12.81386,77.58123
Bannerughatta Circle,xe,12.81368,77.58127
Bannerughatta National Park,1j0,12.80079,77.57787
Bannerughatta National Park,2uf,12.80092,77.57748
Bannigiri,2r6,12.75687,77.43645
Bannigiri,i7,12.75686,77.43642
Bannigiri Cross,2rv,12.74727,77.43325
Bannigiri Cross,3cq,12.74724,77.43327
Bannikuppe,667,12.847,77.38386
Bannikuppe,vp,12.84702,77.38389
Bannimangala,2yh,13.26019,77.58847
Bapuji Layout Saraswathi Nagara,47h,12.97203,77.52938
Bapujinagara,6gk,12.95321,77.54182
Baradi,622,13.17627,77.36671
Baraguru,3eo,12.95115,77.88386
Baraguru,3vk,12.95122,77.88394
Basammanahalli,55h,12.87519,77.35305
Basammanahalli Cross,54m,12.8747,77.35432
Basammanahalli Cross,km,12.87484,77.35435
Basappa Circle,3ku,12.95601,77.57728
Basappa Circle,5am,12.95636,77.57717
Basappa Circle,5q6,12.95624,77.57721
Basappa Layout Mattahalli,3e1,13.10653,77.45371
Basappa Layout Mattahalli,4lq,13.10656,77.45369
Basappanapalya,1rq,12.83133,77.50046
Basappanapalya,568,12.83134,77.50052
Basappanapalya Cross,2il,12.84253,77.50237
Basappanapalya Cross,vm,12.84255,77.50238
Basapura Electronic City,4za,12.86416,77.65023
Basava Gangotri Samsthe,2kz,12.88359,77.45044
Basavanagara,3ba,12.96664,77.68279
Basavanagara,o0,12.96682,77.68276
Basavanagara Kengeri,1ep,12.90096,77.46736
Basavanagara Kengeri,40r,12.90106,77.46733
Basavanagudi Police Station,13d,12.94172,77.57384
Basavanagudi Police Station,2ls,12.94158,77.57374
Basavanahalli,494,13.11038,77.38823
Basavanahalli,6ca,13.11034,77.3882
Basavanahalli Cross,23n,13.10223,77.38875
Basavanahalli Cross,3uh,13.10231,77.38869
Basavanapalya,1in,12.93227,77.40009
Basavanapalya,3kl,12.93213,77.40007
Basavanapura,1yv,13.22562,77.57649
Basavanapura,2ux,12.84977,77.3835
Basavanapura,5fy,13.22559,77.57657
Basavanapura,5lc,12.84986,77.38333
Basavanapura,5ps,12.84561,77.59433
Basavanapura,n4,12.84558,77.59433
Basavanapura Church,1l3,12.84671,77.59313
Basavanapura Gate,31w,12.8463,77.58821
Basavanapura Gate,5m4,12.8463,77.58818
Basavanna Devasthana CK Palya,2d2,12.84391,77.60611
Basavanna Devasthana CK Palya,52d,12.84393,77.60596
Basavanna Temple Hoovinayakanahalli,1tl,13.1679,77.6885
Basavanna Temple Hoovinayakanahalli,4br,13.16788,77.6886
Basavapatna,107,12.9702,77.17665
Basavapatna,5i,12.97027,77.17677
Basavenahalli,2h8,13.03853,77.31472
Basavenahalli,4yu,13.03857,77.31479
Basavenahalli Colony,2ly,13.03604,77.3141
Basavenahalli Colony,4ix,13.03607,77.31428
Basavenahalli Colony,590,13.03605,77.31433
Basaveshwara College,11h,12.99439,77.5528
Basaveshwara College,4p4,12.99436,77.55276
Basaveshwaranagara 2nd Phase,3he,12.90829,77.461
Basaveshwaranagara Banandur,1v8,12.75944,77.40372
Basaveshwaranagara Banandur,46k,12.75942,77.40367
Basaveshwaranagara New Bus Stand,1wc,12.98832,77.5336
Bashettalli,1av,13.26176,77.5527
Bashettalli,6jb,13.26164,77.5526
Bashyam Circle,5dj,13.00473,77.57848
Bashyam Circle,5md,13.00564,77.57862
Bashyam Circle Rajajinagara,1t5,12.98441,77.5544
Bashyam Circle Rajajinagara,3gs,12.98441,77.55398
Bashyam Circle Rajajinagara,3iw,12.98391,77.55412
Bashyam Circle Rajajinagara,5n4,12.98458,77.55414
Bashyam Circle Sadashivanagara,5zu,13.00628,77.57915
Bashyam Circle Sadashivanagara,js,13.0062,77.57905
Bata Show Room banashankari,1hn,12.92351,77.57006
Bata Show Room banashankari,3vn,12.92348,77.57008
Bayalahalli Gate(Bande kodigehalli),18j,13.17001,77.68996
Bayalahalli Gate(Bande kodigehalli),476,13.16998,77.69009
Bayalu Bandikhane,2di,13.29561,77.73617
Bayyanapalya,18u,12.87558,77.54374
Bayyanapalya,ao,12.87554,77.54355
Bayyandahalli,1iu,13.00608,77.44221
Bayyandahalli,68f,13.00609,77.44226
Bayyandahalli Colony,12n,13.00343,77.44231
Bayyandahalli Colony,1w7,13.00342,77.44235
Bayyappanahalli,2a,13.07154,77.7207
Bayyappanahalli,5iy,13.07164,77.7208
Bayyappanahalli Cross,3dd,12.98559,77.64255
Bayyappanahalli Cross,4hb,12.98525,77.64246
Bayyappanahalli Gate,2ud,12.99157,77.64327
Bayyappanahalli Gate,639,12.9916,77.6433
Bayyappanahalli Metro Station,60k,12.98967,77.65404
Bayyappanahalli Metro Station,68m,12.99001,77.65454
Bayyappanahalli Metro Station  Back Gate,2hi,12.99166,77.65212
Beedi Karmikara Colony,2cz,12.91906,77.471
Beedi Karmikara Colony,el,12.92003,77.47146
Beedi Karmikara Colony Gate,b4,12.92237,77.47478
Beedi Karmikara Colony Gate,xm,12.92228,77.47492
Beerahalli,6m5,13.15743,77.91538
Beerasandra Chapradakallu,1r1,13.28046,77.62049
Beerasandra Chapradakallu,1um,13.28005,77.62042
Beerawara,27r,13.06362,77.27445
Beereshwara Nagara,c5,12.88206,77.56537
Begihalli,59p,12.79796,77.60381
Begihalli,5cx,12.79788,77.60381
Beguru,2jz,13.13887,77.84328
Beguru,4yb,13.18351,77.67959
Beguru,l9,12.87361,77.62535
Beguru,m3,13.18348,77.67967
Beguru,pw,13.18356,77.67974
Beguru,u,12.87364,77.62515
Beguru Lake,396,12.87795,77.62532
Beguru Lake,43y,12.87783,77.62549
Beguru Nice Road Junction,14a,12.85446,77.60949
Beguru Nice Road Junction,2m1,12.85445,77.60943
Bekary Chunchaghatta,383,12.88652,77.57071
Bekary Chunchaghatta,603,12.88648,77.57068
Belagumba,1gr,12.9949,77.24643
Belenus Hospital Near Carmelram Gate,14t,12.90255,77.709
Belenus Hospital Near Carmelram Gate,2iw,12.90247,77.70891
Bellahalli,3l8,13.09923,77.64223
Bellahalli,8k,13.09913,77.64209
Bellahalli Cross,1dw,13.10124,77.63492
Bellahalli Cross,6ir,13.10196,77.63362
Bellahalli Cross,bb,13.10144,77.63606
Bellahalli Cross,o9,13.10207,77.63351
Bellahalli Cross THS Main Road,9j,13.10113,77.6351
Bellanduru City Light Appartment,2u0,12.92412,77.67278
Bellanduru City light Apartment,2xv,12.92493,77.67394
Bellanduru Gate SJP Road,1md,12.91858,77.66991
Bellanduru Gate SJP Road,37k,12.91864,77.66931
Bellanduru Petrol Bunk,2gu,12.92309,77.6705
Bellanduru Petrol Bunk,5yz,12.92322,77.6702
Bellathur,37d,13.00405,77.75706
Bellathur,3yq,13.00417,77.75694
Bellikere,17l,12.93031,77.79724
Bellikere,4jv,12.93038,77.79723
Bellikere Cross,4s4,12.93664,77.79729
Bendiganahalli,15i,13.2175,77.8312
Bendiganahalli,2no,13.06721,77.75758
Bendiganahalli,30t,12.81443,77.74051
Bendiganahalli,538,13.0671,77.75759
Bendiganahalli,6fr,13.21756,77.8313
Bendiganahalli Cross,2e6,13.20626,77.83458
Bendiganahalli Cross,30e,13.20652,77.83465
Bengaluru Central Jail,4pr,12.8737,77.66617
Bengaluru Central Jail,6et,12.87368,77.66638
Bengaluru Children Hospital,6o6,12.90986,77.51342
Bengaluru Children Hospital1,1p6,12.90994,77.51354
Bengaluru Dairy Circle,184,12.93716,77.60182
Bengaluru Dairy Circle,1r7,12.93535,77.60143
Bengaluru Dairy Circle,27f,12.93709,77.60105
Bengaluru Dairy Circle,3bm,12.93909,77.6021
Bengaluru Dairy Circle,3p9,12.93528,77.60129
Bengaluru High School,2yl,12.95209,77.56749
Bengaluru High School,32m,12.95325,77.56762
Bengaluru University Gate,1t9,12.93537,77.51269
Bengaluru University Gate,2nb,12.93582,77.51282
Bengaluru University Gate,5ok,12.93573,77.51332
Bengaluru University Quarters,2s6,12.95176,77.49972
Bengaluru University Quarters,3pz,12.95195,77.50025
Bennehalli,1ew,12.71652,77.38354
Benniganahalli,13g,12.99406,77.6632
Benniganahalli,h3,12.99428,77.6633
Benniganahalli Bridge,25c,12.99718,77.66274
Benniganahalli Bridge,3rq,12.99714,77.66288
Best County,1o7,13.08932,77.54467
Best County,528,13.08935,77.5447
Besthamanahalli,54q,12.73084,77.72668
Besthamanahalli,bh,12.73087,77.72666
Bethan Byatha,3qw,13.19002,77.48136
Bethan Byatha,62s,13.19007,77.48137
Bethimgere,6f2,12.85694,77.36489
Bethimgere Cross,1th,12.86714,77.36812
Bethimgere Cross,59v,12.86708,77.36815
Bettadasanapura,5r9,12.84158,77.63194
Bettadasanapura,68x,12.84157,77.63177
Bettahalasuru Circle,1zi,13.16112,77.61103
Bettahalasuru Circle,he,13.16108,77.61102
Bettahalasuru Cross,2o6,13.1571,77.62336
Bettahalasuru Cross,6j9,13.15656,77.62358
Bettahalasuru Cross,n2,13.15676,77.62261
Bettahalasuru Hospital,1an,13.15926,77.61143
Bettahalasuru Hospital,6mv,13.15922,77.61154
Bettahalasuru Village,190,13.16278,77.60861
Bettahalasuru Village,4we,13.16285,77.60857
Bettahalli,1a4,13.01679,77.4373
Bettahalli,259,13.16378,77.38642
Bettahalli,51z,13.16372,77.38641
Bettahalli Colony,1zj,13.1621,77.38436
Bettahalli Colony,2sj,13.01532,77.44321
Bettahalli Colony,695,13.16215,77.38433
Bettahalli Colony,oy,13.01531,77.44326
Bettahalli Cross,1vu,13.00817,77.43473
Bettahalli Cross,1yg,13.00812,77.4348
Bettahalli Gate,5ey,13.1821,77.83163
Bettahalli Gate,6bc,13.19325,77.81307
Bettahalli Kaval,2z0,12.73518,77.50918
Bettahalli Kaval,421,12.73521,77.50922
Bettahalli Layout,5nm,13.0924,77.55947
Bettahalli Layout,to,13.09238,77.55958
Bettahallipalya,567,13.16168,77.39285
Bettahallipalya,bv,13.16176,77.39286
Bettakote,2hq,13.19939,77.73921
Bettakote,6ej,13.19941,77.73925
Bettanahalli Site,5o6,13.21008,77.58793
Bettanahalli Site,5vq,13.21012,77.58795
Bettanapalya,1b0,12.91199,77.44335
Bettenahalli,1nk,13.20872,77.5882
Bettenahalli,99,13.20867,77.5882
Bevina Mara Kannamangala,2tw,13.02801,77.76027
Bevina Mara Kannamangala,50t,13.02809,77.76037
Bhadrappa Layout,3hs,13.0472,77.57339
Bhadrappa Layout,6ol,13.04762,77.57598
Bhagwan Mahaveer Jain Hospital,4tv,12.99059,77.59596
Bhagya Nagara,42l,12.86091,77.58543
Bhagya Nagara,5it,12.86084,77.58551
Bhaktharahalli,2nq,13.02044,77.79462
Bhaktharahalli,5kf,13.02196,77.79627
Bhaktharahalli,6is,13.02193,77.79627
Bhaktharahalli Cross,14h,13.01852,77.78438
Bhaktharahalli Cross,15s,13.01851,77.78448
Bhakthi Yoga Ashrama,57f,13.02256,77.68928
Bhakthi Yoga Ashrama,od,13.02262,77.6893
Bhakthipura Cross,1cs,12.75742,77.76182
Bhakthipura Cross,fz,12.75735,77.76188
Bhantaraguppe,4am,12.98786,77.27372
Bharath Nagara 1st Phase,41k,12.98117,77.48513
Bharath Nagara 1st Phase,6ng,12.98118,77.48508
Bharath Nagara 2nd Stage,1g5,12.97866,77.47789
Bharath Nagara 2nd Stage,kf,12.97868,77.47781
Bharath Petrol Bunk Thyamagondlu,42j,13.21928,77.29097
Bharathi Nagara,42u,13.13752,77.61764
Bharathi Nagara,4hy,13.1374,77.61746
Bharathi Nursing Home Jayanagara,2qr,12.93683,77.57396
Bharathi Nursing Home Jayanagara,4jm,12.9369,77.57404
Bharathnagara Sunkadakatte,2tp,12.97957,77.50205
Bharathnagara Sunkadakatte,xs,12.97958,77.50203
Bhartiya City Chokkanahalli,13j,13.08341,77.64253
Bhattarahalli,2u9,13.01951,77.70898
Bhattarahalli,f1,13.01892,77.70878
Bhattarahalli,xx,13.02046,77.70985
Bhattarahalli Bank Of India,50a,13.01521,77.70947
Bhattarahalli Cross,12e,13.01618,77.70932
Bhattarahalli Cross,499,13.01616,77.70931
Bhavani Nagara 2nd Stage,4na,12.96323,77.48182
Bhavani Nagara 2nd Stage,6db,12.96316,77.48186
Bhavani Nagara 2nd Stage Cross,5nh,12.96072,77.48821
Bhavani Nagara 2nd Stage Cross,614,12.96075,77.48813
Bheemajyothi Nagara Shankara Mutt,4au,13.00257,77.54096
Bheemajyothi Nagara Shankara Mutt,mo,13.00219,77.54073
Bheemanakuppe,5ik,12.90418,77.43814
Bheemanakuppe,vg,12.90409,77.43824
Bheemanakuppe Cross,5xn,12.89479,77.43676
Bheemanakuppe Cross,lb,12.89465,77.43682
Bhimakanahalli Gate,3xv,13.13531,77.85597
Bhimakanahalli Gate,6es,13.13529,77.85584
Bhodhana Hosahalli,11g,12.97884,77.80247
Bhodhana Hosahalli,5vs,12.97886,77.80248
Bhoganahalli,28z,12.92644,77.70108
Bhokipura,59t,12.73597,77.47426
Bhokipura,xj,12.73601,77.47455
Bhoopasandra,24v,13.04247,77.5808
Bhoopasandra,4y1,13.04244,77.58086
Bhoopasandra Ayyappa Bakery,378,13.04265,77.57706
Bhoopasandra Ayyappa Bakery,i0,13.04263,77.57715
Bhovi Colony,45q,12.8884,77.67617
Bhovi Colony,690,12.88837,77.67608
Bhovipalya,2re,12.89336,77.79745
Bhovipalya,3o7,13.20166,77.64511
Bhovipalya,3og,13.20163,77.64509
Bhovipalya,5of,12.8935,77.79742
Bhovipalya,ke,13.20209,77.62376
Bhuvanahalli,1v3,13.21793,77.68191
Bhuvanahalli,609,13.21787,77.68187
Bhuvanahalli Gate,375,13.2187,77.67964
Bhuvanahalli Gate,3xe,13.21859,77.6798
Bhuvaneshwari Nagara,3b6,12.92298,77.54904
Bhuvaneshwari Nagara,3t7,12.92295,77.54897
Bhuvaneshwari Nagara,4hu,13.03719,77.4913
Bhuvaneshwari Nagara,5dd,13.03216,77.60482
Bhuvaneshwari Nagara,5mc,13.03713,77.49131
Bhuvaneshwari Nagara 1st Stage,6m7,12.94227,77.4903
Bhuvaneshwari Nagara 1st Stage,cw,12.94222,77.49044
Bhuvaneshwari Nagara 2nd Stage,4ry,12.94262,77.48728
Bhuvaneshwari Nagara 2nd Stage,52a,12.94259,77.48713
Bhuvaneshwari Nagara Mahalakshmi Temple,3sg,12.92191,77.55084
Bhuvaneshwari Petrol Bunk,1dh,13.13876,77.35144
Bhuvaneshwari Petrol Bunk,47f,13.1392,77.35126
Bible  College Byrathi,46h,13.07137,77.65145
Bible  College Byrathi,8l,13.07144,77.65155
Bidadi,13o,12.7969,77.38458
Bidadi,5b9,12.79678,77.38496
Bidadi Railway Station,2dn,12.79976,77.39082
Bidadi Railway Station,6cs,12.79973,77.39107
Bidalapura,2n4,13.18779,77.7708
Bidalapura,61p,13.1877,77.7706
Bidalapura Cross,2lz,13.19664,77.77773
Bidalapura Cross,3tc,13.18946,77.76205
Bidalapura Cross,477,13.18945,77.76202
Bidaragere,1pv,12.71566,77.72302
Bidaraguppe,12v,12.80585,77.78349
Bidaraguppe,30u,12.80593,77.7836
Bidaraguppe,512,12.80605,77.7833
Bidarahalli,3ta,13.06539,77.71696
Bidarahalli,5wy,13.06538,77.71704
Bidarahalli Cross,3mv,13.057,77.71509
Bidarahalli Cross,4f2,13.05692,77.71517
Bidarahalli Cross,5iu,13.05689,77.71506
Bidarahalli Dargah,w5,13.06834,77.70807
Bidarahalli School,2ix,13.06024,77.71619
Bidarahalli School,6im,13.05997,77.71626
Bidiganahalli Cross,3zn,13.25654,77.80487
Big Bazzar  ITPL,5rq,12.98795,77.7318
Big Bazzar ITPL,1re,12.98827,77.73061
Big Bazzar ITPL,3pl,12.98823,77.73197
Big Market Sahakaranagara,5ye,13.06257,77.59289
Bikashipura,44u,12.89818,77.55768
Bikashipura,5tp,12.89807,77.55757
Bikkana Hosahalli,5pj,12.84754,77.7638
Bikkana Hosahalli,dl,12.84762,77.7637
Bikkanahalli,15,12.83667,77.75999
Bikkanahalli,4ov,12.83672,77.76003
Bilavaradahalli,2pm,12.83622,77.57676
Bilavaradahalli,493,12.83624,77.57677
Bilavaradahalli Cross,5w4,12.82244,77.57238
Bilavaradahalli Cross,ne,12.82247,77.57236
Bilekahalli,2hy,12.90079,77.60112
Bilekahalli,451,12.90051,77.6009
Bileshivale,3dk,13.0546,77.6709
Bileshivale,56v,13.05453,77.67094
Bileshivale,r0,13.05449,77.67093
Bilijaji,4bt,13.12638,77.47337
Bilikallu,bq,12.97511,77.47988
Bilikallu,j3,12.97515,77.47996
Billa Kempanahalli Gate,2yv,12.81212,77.40408
Billa Kempanahalli Gate,5yd,12.81204,77.40384
Billamaranahalli,2o1,13.15063,77.63794
Billamaranahalli,51g,13.15061,77.63804
Billapura,32q,12.83768,77.78504
Billapura,43c,12.83742,77.785
Billinakote,2cj,13.19776,77.27177
Billinakote,ad,13.19793,77.27183
Bingipura,3jr,12.82575,77.6324
Bingipura,40h,12.8257,77.63222
Bingipura Cross,33i,12.82587,77.62304
Bingipura Cross,g8,12.82578,77.62297
Binnamangala,285,12.98331,77.63834
Binnamangala,2k,12.9835,77.64067
Binnamangala,3lr,12.98368,77.64049
Binnamangala,6ky,13.08745,77.41256
Binnamangala,tm,12.98384,77.64002
Binnamangala Gokare,28t,13.25365,77.74268
Binnamangala Gokare,2sr,13.25355,77.74266
Binnamangala Towads Nelamangala),9w,13.08744,77.41242
Binny MIll,4cl,12.9653,77.56817
Binny Mill,5qq,12.97052,77.56624
Binny Mill,rx,12.97036,77.56621
Binny Mill ETA Garden,11e,12.97325,77.56639
Binnypet,jy,12.96448,77.56171
Binnypet,wl,12.96468,77.56176
Biocon Jigani Road,4fi,12.80824,77.66382
Biocon Jigani Road,4hr,12.80784,77.6638
Birla Haralur Road,6cz,12.8942,77.6571
Bisanahalli,13w,13.00891,77.81306
Bisanahalli,6oq,13.00884,77.81304
Bisanahalli Cross,6n2,13.00916,77.81418
Bisanahalli Cross,s3,13.00916,77.81419
Biscuits Factory,1cv,12.98904,77.81303
Biscuits Factory,2sb,13.08213,77.44975
Biscuits Factory,3qr,13.08217,77.44976
Biscuits Factory,5za,12.989,77.81324
Bishop Coton Girls High School,29e,12.96889,77.6014
Biskur,qx,13.08798,77.14034
Bittasandra,3qv,13.1075,77.2867
Bittasandra,3sz,13.10755,77.28668
Bittasandra Colony,249,13.10583,77.29431
Bittasandra Colony,3g2,13.10588,77.29434
Bloom Field Garden,22n,13.06557,77.55318
Bloom Field Garden,38k,13.06573,77.55331
Bolamaranahalli,1jq,13.15935,77.39782
Bolamaranahalli,361,13.15942,77.39788
Bolare,6bx,12.75429,77.48468
Bolare Gate,6c4,12.75414,77.48453
Bombay Dyeing Yashwanthapura,149,13.02491,77.55751
Bombay Dyeing Yashwanthapura,1b3,13.02491,77.55748
Bombay Estate Guruvanahalli,5ap,13.05285,77.35568
Bombay Estate Guruvanahalli,6it,13.05288,77.35565
Bommachanahalli,6e8,12.80418,77.31468
Bommachannahalli,4k3,12.80413,77.31467
Bommanabande,28x,13.01208,77.87171
Bommanabande,5nr,13.01218,77.87175
Bommanahalli,21y,12.90696,77.6285
Bommanahalli,3q4,12.90631,77.62987
Bommanahalli,4th,12.90678,77.62847
Bommanahalli,5my,12.90477,77.62999
Bommanahalli,bc,13.12141,77.3683
Bommanahalli,c2,12.90559,77.63003
Bommanahalli,y1,13.1213,77.36814
Bommanahalli Fly Over,1aq,12.90488,77.63017
Bommanahalli Fly Over,eb,12.9056,77.62989
Bommandahalli,6kx,12.75406,77.64278
Bommandahalli,t5,12.75404,77.64274
Bommasandra,45h,12.82097,77.68687
Bommasandra,5gz,12.81857,77.68864
Bommasandra,5wv,12.81893,77.68939
Bommasandra,6ct,12.81865,77.6894
Bommasandra,6jq,12.81932,77.68858
Bommasandra Canara Bank,5cv,12.82135,77.68772
Bommasandra Village,1a5,12.8169,77.69891
Bommashettyhalli,3la,13.1308,77.41895
Bommashettyhalli Cross,1qv,13.12581,77.41664
Bommashettyhalli Cross,52q,13.12586,77.41666
Bommawara,kq,13.25405,77.67177
Bommawara Gate,4st,13.26496,77.68047
Bommawara Gate,5fk,13.26488,77.68053
Bommenahalli,4u0,13.07442,77.74688
Bommenahalli,qp,13.07449,77.7468
Bommenahalli Colony,5rv,13.07103,77.74504
Bommenahalli Colony,5to,13.07128,77.74521
Bone Mill,52o,13.06385,77.50503
Bone Mill,5o9,13.06385,77.50508
Bone Mill,62d,13.06383,77.50494
Booathanahalli,y8,12.80447,77.5603
Book Factory Thanisandra,3g0,13.06161,77.63322
Book Factory Thanisandra,5kq,13.06159,77.63336
Boorugunte,2hp,12.84231,77.78376
Boorugunte,56o,12.8422,77.78376
Boothanahalli,4ax,12.80452,77.56044
Boppanahalli Chikkapura,5v6,12.99583,77.90307
Bordugallu,56b,12.96825,77.28958
Borehalli,4zy,12.84339,77.35806
Borehalli,55t,12.84352,77.35808
Born Babies,1ci,12.90929,77.63806
Born Babies,3k9,12.90929,77.63804
Bosch Main Gate Bidadi,ng,12.80023,77.42076
Brahma Devara Gudda,4oq,12.96334,77.47212
Brigade Atmosphere,4oo,13.26543,77.73925
Brigade Atmosphere,6mq,13.26541,77.73924
Brigade Meadows Kanakapura Road,4ny,12.81432,77.50684
Brigade Meadows Kanakapura Road,4yh,12.81437,77.50685
Brigade Millenium,218,12.89224,77.58172
Brigade Millenium,3zm,12.89217,77.58329
Brigade Millenium,43b,12.89213,77.58192
Brigade Omega Apartment,1jw,12.89286,77.52894
Brigade Omega Apartment,1wg,12.89301,77.52884
Brigade Palm Springs,1f0,12.89508,77.58628
Brigade Palm Springs,mu,12.89514,77.58613
Brigade Road,53u,12.97149,77.60678
Bristol Quarters,368,12.98855,77.66239
Broad Casting Compound Kadanur,63l,13.25794,77.489
Broad Casting Compound Kadanur,ib,13.25791,77.48905
Brook Haven JP Nagara 8th Phase,2si,12.87154,77.57604
Brook Haven JP Nagara 8th Phase,6l1,12.87155,77.57624
Brook Steel ESI,3ic,12.9931,77.70535
Brook Steel ESI,5a4,12.99295,77.70547
Brooke Bond,271,12.96454,77.74869
Brooke Bond,2az,12.96392,77.74833
Brundavana Badavane,324,12.72147,77.71776
Brundavana Badavane,4l5,12.72147,77.71783
Brundavana Nagara,1qn,12.95049,77.55553
Brundavana Nagara,5sc,12.95042,77.5555
Brundavana Peenya,3xc,13.02038,77.50815
Brundavana Peenya,4rv,13.02024,77.50803
Brundavana School Maralawadi,2w3,12.61763,77.52116
Brundavana Vaddarahalli,22,13.024,77.44946
Budigere,412,13.13511,77.74756
Budigere,51l,13.1351,77.74751
Budigere Cross,17w,13.04603,77.75054
Budigere Cross,2ph,13.04651,77.75054
Budigere Cross,4p6,13.04651,77.75021
Budihal,2bd,13.13494,77.36227
Budihal Gate,23a,13.13119,77.35895
Budihal Gate,4p3,13.13108,77.35881
Budihal Gate,50p,13.22448,77.73872
Budihal Gate,6np,13.22417,77.73861
Budumanahalli,16t,13.19091,77.52791
Budumanahalli,zd,13.19088,77.52794
Budumanahalli Cross,2dj,13.186,77.54023
Budumanahalli Cross,432,13.18592,77.54021
Bukkasagara,4g8,12.77898,77.61961
Bukkasagara,wf,12.77881,77.61964
Bull Temple,3vu,12.94269,77.56778
Bullahalli,67a,13.30722,77.73069
Buragamarada Palya,29a,13.06408,77.32832
Buragamarada Palya,k6,13.06377,77.32852
Burumarana Doddy,qj,12.78692,77.31067
Byadarahalli,356,12.98504,77.48214
Byadarahalli,55p,12.9852,77.48196
Byadarahalli,x3,12.98697,77.25673
Byadarahalli Gate,1mi,12.99377,77.25509
Byadarahalli Gate,4sv,12.99366,77.25514
Byagadadenahalli,2uy,12.75247,77.7028
Byagadadenahalli,ji,12.75241,77.70262
Byagadadenahalli Gate,2zj,12.75232,77.70668
Byagadadenahalli Gate,518,12.75211,77.70668
Byalahalli,18b,13.16975,77.6813
Byalahalli,1by,12.93978,77.81526
Byalahalli,4w5,12.93962,77.81532
Byalahalli,5d1,13.16978,77.68134
Byalahalli Garment,3bb,12.9455,77.81544
Byalahalli Garment,7o,12.94531,77.81545
Byalalu,5ft,12.89194,77.37637
Byalalu,5gj,12.89185,77.3763
Byatarayana Doddy,40s,12.8163,77.5508
Byatarayana Doddy,4a2,12.81634,77.55078
Byatarayana Doddy Cross,2fb,12.80373,77.54362
Byatarayana Doddy Cross,5ui,12.80368,77.54362
Byatarayana Doddy Cross 1,6c3,12.80375,77.54358
Byatarayanapura,18t,13.06646,77.59299
Byatarayanapura,23i,13.06693,77.59337
Byatarayanapura,3st,13.06715,77.5938
Byatarayanapura,544,13.06723,77.59354
Byatha,c9,13.19309,77.48456
Byatha,ki,13.19313,77.48455
Byatha Cross,1cn,13.1931,77.48626
Byatha Cross,6k3,13.19307,77.48622
Bychakuppe,1bt,12.97049,77.38862
Bychakuppe,4j4,12.97051,77.38868
Bychapura,3qq,13.22435,77.71285
Bychapura,4yq,13.22432,77.71283
Bychapura,63f,13.22421,77.71283
Bychapura Appartment,1v2,13.22219,77.71777
Bychapura Appartment,2sa,13.22216,77.71777
Bychohalli,4r8,12.80653,77.43822
Bychohalli,qf,12.8063,77.43817
Bylakonenahalli,zu,13.01612,77.45648
Bylanarasapura,9u,13.17716,77.93476
Bylanjaneya Swamy Temple Gollahalli,4kw,13.1501,77.40957
Bylanjaneya Swamy Temple Gollahalli,ni,13.15011,77.40965
Byra Doddy Circle,3s5,12.79486,77.38918
Byra Doddy Circle,4yj,12.79493,77.38921
Byramangala,141,12.74879,77.42433
Byramangala,1rp,12.74876,77.42431
Byramangala Circle,25k,12.7498,77.42214
Byramangala Circle,2c2,12.74986,77.42207
Byramangala Cross,4zt,12.80181,77.39781
Byramangala Cross,59l,12.80246,77.39725
Byramangala Cross,62v,12.80222,77.39714
Byranahalli Cross,3sb,13.15387,77.33824
Byranahalli Cross,z,13.15384,77.33819
Byranayakanahalli,137,13.19938,77.37682
Byranayakanahalli,420,13.19911,77.37649
Byranayakanahalli Railway Station,3zh,13.19406,77.38192
Byranayakanahalli Railway Station,ln,13.19402,77.38186
Byrapura,27v,13.20178,77.52289
Byrasandra,61z,12.83495,77.48547
Byrasandra,dr,12.83492,77.48543
Byrasandra Cross,1zb,12.97556,77.66801
Byrasandra Cross,2z5,12.97546,77.66812
Byrasandra Dinne,3gm,13.23955,77.84697
Byrasandra Dinne,bj,13.23972,77.84812
Byrasandra New Bus Stand,4y6,12.93549,77.59001
Byrashettyhalli,399,13.15659,77.40339
Byrashettyhalli,6aj,13.15656,77.40332
Byrathi,26t,13.05609,77.652
Byrathi,358,13.05602,77.65196
Byrathi Bande,1zs,13.078,77.65342
Byrathi Bande,5pc,13.07788,77.65345
Byrathi Bande,6k2,13.07794,77.65355
Byrathi Cross,2au,13.05702,77.64822
Byrathi Cross,59d,13.05708,77.64845
Byrathi Cross,zc,13.05702,77.64834
Byraveshwara Layout,1vs,13.06417,77.49494
Byraveshwara Layout,kc,13.06413,77.49493
Byraveshwaranagara,4ti,12.96501,77.52338
Byraveshwaranagara,mm,12.96519,77.52334
Byregowdanahalli Colony,1qr,13.06449,77.39379
Byregowdanahalli Colony,2j3,13.06434,77.39376
Byregowdanahalli2,4e,13.05913,77.39389
Byregowdanahalli3,1xg,13.05926,77.39389
Byrohalli Gate,4ol,12.93438,77.44817
Byrohalli Gate,62t,12.93433,77.44829
C Q A L,2br,13.01175,77.59331
C R P F Kaggalipura Main Road,4u4,12.79567,77.53926
C R P F Kaggalipura Main Road,6g0,12.79562,77.53931
C R P F Yelahanka,5ma,13.12298,77.57554
C R P F Yelahanka,5vo,13.12278,77.57552
CBI,25u,13.02653,77.58565
CBI,37l,13.02696,77.58589
CBI,64b,13.02691,77.58601
CBI,6ac,13.02613,77.58514
CFSP Farm,565,13.17858,77.48946
CK Palya,2s1,12.83337,77.60874
CK Palya Cross,6jc,12.84055,77.59357
CK Palya Cross,td,12.84049,77.59373
CK Palya Dinne,2du,12.83828,77.60498
CK Thandya,3g5,12.8703,77.39759
CK Thandya,62f,12.87023,77.39753
CK Thandya Cross,2mw,12.86545,77.39216
CK Thandya Cross,5qv,12.86548,77.3922
CK Thandya Junction,5dp,12.87609,77.40103
CMH Hospital,157,12.97861,77.64648
CMH Hospital,18r,12.97838,77.64668
CMH Hospital,6j,12.97849,77.64655
CMRIT College,1z1,12.96764,77.71389
CMRIT College,3qu,12.96763,77.71447
CMTI,2tu,13.03143,77.53561
CMTI,4mc,13.0307,77.53641
CMTI,5l1,13.03293,77.53395
CPRI,1ij,13.01484,77.57489
CPRI,1qk,13.01473,77.57499
CPRI Quarters,45s,13.02241,77.5722
CPRI Quarters,4q,13.02217,77.57224
CPWD Quarters HSR Layout,2m9,12.91413,77.65182
CPWD Quarters HSR Layout,4k2,12.914,77.65181
CQAEL CQEAE Complex,6ks,13.03713,77.54174
CR Police Ground,111,12.96258,77.5601
CS Depot-25 HSR Layout,1ms,12.92001,77.64334
CS-1st Cross Magadi Road,4py,12.97577,77.56265
CS-5th Block HBR Layout,1p9,13.03545,77.6319
CS-5th Phase Yelahanka,4h4,13.10413,77.57254
CS-6th Block Rajajinagara,501,12.9798,77.55367
CS-80 Feet Road Kalyananagara,fv,13.02554,77.64084
CS-8th Mile,fi,13.04508,77.5075
CS-ADMC Quarters Office,sj,13.0044,77.64132
CS-ARMY PUBLIC SCHOOL (Parachute Regiment),1pf,13.01671,77.58643
CS-ARMY Public School ASC Center,3e8,12.96439,77.6182
CS-Active Public School Hommadevanahalli,2a0,12.84029,77.59439
CS-Adishwara Bombay Dying,64l,13.0212,77.55614
CS-Ajmeer Apartment Neeladri Road,5uf,12.84188,77.64646
CS-Alphine Apartment,5l2,13.06647,77.57655
CS-Aluru,qq,13.08474,77.46538
CS-Ambedkar Institute of Technology,41t,12.96352,77.50519
CS-Anchepalya,6ou,12.89273,77.45782
CS-Andhrahalli Govt School,48k,13.00957,77.4828
CS-Anjanamurty,1ui,13.04518,77.57415
CS-Anjaneya Temple Beguru,4li,12.87285,77.62465
CS-Annapoorneshwarinagara,v8,12.98075,77.507
CS-Arakere Gate,3cw,12.89051,77.59802
CS-Arehalli Taja Cake,3zi,12.91252,77.54017
CS-Arishinakunte,6b3,13.07961,77.42448
CS-Army Public School Kamaraja Road,3xt,12.97867,77.60941
CS-Ashoka Pillar,4ch,12.94312,77.58529
CS-Aspire bee School,28m,12.87932,77.72381
CS-Avasarala Factory Kanakapura Road,j7,12.782,77.49287
CS-Ayyappa Temple Banasawadi,3hq,13.00756,77.64077
CS-B Channasandra Bridge,1m0,13.0132,77.66241
CS-BEL Factory,5gx,13.04887,77.55902
CS-BEML Factory,2xb,12.97154,77.65928
CS-BEML Layout JVS,450,12.99289,77.52914
CS-BMSIT College Campous Yelahanka,3sk,13.13333,77.56767
CS-BPL Arekere,3zf,12.88755,77.59714
CS-BUC Quarters,6eo,12.95241,77.49998
CS-Bagalagunte Cross,2d3,13.05665,77.50727
CS-Bagmane Tech Park,27x,12.97947,77.6641
CS-Bagmane Tech Park (Graphite India),23q,12.97025,77.70702
CS-Baiyappanahalli Metro Station,22s,12.99026,77.65496
CS-Bamboo Bazaar,545,12.99196,77.60368
CS-Banashankari,1w1,12.91761,77.57381
CS-Bande Mutt Arch,5yr,12.91903,77.4775
CS-Bannerughatta Circle,4nm,12.81379,77.58123
CS-Basava Gangotri Samste,zy,12.88364,77.45005
CS-Basavanagara Kengeri,4p8,12.90118,77.46752
CS-Beereshwaranagara,1xf,12.88205,77.5654
CS-Belenus Hospital Near Carmelram Gate,162,12.9022,77.7085
CS-Bhartiya City Chokkanahalli,30w,13.08332,77.64251
CS-Bhattarahalli Bank Of India,1g0,13.01497,77.70945
CS-Bhodhana Hosahalli,35k,12.97932,77.80271
CS-Bhoopasandra,j1,13.04245,77.58099
CS-Bhuvaneshwari Nagar,29c,13.0322,77.60486
CS-Bidarahalli,sd,13.062,77.71588
CS-Binny Mill ETA Garden,6c7,12.97325,77.56642
CS-Bishop Coton Girls High School,28c,12.96916,77.60157
CS-Bommasandra Canara Bank,241,12.82162,77.68772
CS-Bone Mill,3xu,13.06366,77.5051
CS-Brigade Millenium,3ej,12.8924,77.58191
CS-Bristol Quarters,gw,12.98855,77.66256
CS-Budigere,367,13.13517,77.74753
CS-Byrathi Bande,4dc,13.07796,77.6535
CS-CBI,507,13.02624,77.58563
CS-CMP Centre and School,pt,12.95906,77.61229
CS-CPWD HSR Layout,2fz,12.91417,77.65226
CS-CV Raman Nagara Railway Gate,4us,12.98364,77.67975
CS-CWS-3,6jf,12.90393,77.44992
CS-Centre for Learning School Varadenahalli,5bx,12.95907,77.3089
CS-Chandra Layout,40b,12.95826,77.52649
CS-Chandrappa Circle,4ob,12.9105,77.36986
CS-Channasandra,25j,12.9833,77.76801
CS-Chikkabanavara,3so,13.0805,77.50257
CS-Chinnappa Garden,34h,13.00337,77.60352
CS-Chowdary Line,an,13.00521,77.63881
CS-Chowdeshwarinagara ORR,66i,13.00053,77.52498
CS-Christal House Learning School,4e8,13.05637,77.64447
CS-Classic Archid Apartment Kothanuru,4wm,12.87489,77.59224
CS-DSC HAL GM Palya,2jf,12.97664,77.66825
CS-Dayanand Sagar College Kanakapura Road,1mx,12.82509,77.51368
CS-Dayananda Sagar College Banashankari,5nn,12.90949,77.56573
CS-Deepa Complex,2og,12.96659,77.50506
CS-Deepanjalinagara,6f8,12.95239,77.5368
CS-Depot-06 Gate,599,12.98255,77.63448
CS-Depot-10 Gate,2g8,13.02548,77.63098
CS-Depot-12 Gate,gi,12.90465,77.47084
CS-Depot-14 Gate,24m,13.02857,77.59349
CS-Depot-24 Gate,5gg,13.00328,77.68252
CS-Depot-31,542,12.99279,77.52135
CS-Depot-34,2q2,12.87149,77.5855
CS-Depot-42 Gate,4a4,12.89509,77.7055
CS-Devis Road,228,13.00329,77.619
CS-Dhoopanahalli,3is,12.96351,77.6415
CS-Dodda Nagamangala Tirumala Bekary,mz,12.86232,77.67769
CS-Doddabele,1i5,12.88897,77.47745
CS-Doddakannalli,5jw,12.90727,77.69523
CS-Domlur Marriad Accomadation,3ga,12.96205,77.63381
CS-ESHA HOSPITAL ATTUR LAYOUT,20g,13.09795,77.56724
CS-East End Jayanagara,2dm,12.91703,77.59681
CS-Ejipura,384,12.94678,77.62871
CS-Electronic City,7q,12.84829,77.67081
CS-FAZ FARMS,35,13.02555,77.66744
CS-Featherlite Factory Hejjala,3xb,12.85352,77.4265
CS-Fetherlite Factory Guddadahalli,3vm,12.95018,77.54642
CS-GBJ Colony Gate Doddanekkundi,6ed,12.95746,77.69136
CS-GKW Layout,3c1,12.96827,77.52879
CS-GM Palya,8,12.97512,77.66587
CS-Ganapathi Enclave,35a,12.94738,77.64094
CS-Gangondanahalli Chandra Layout,1oy,12.94973,77.52679
CS-Garuda Mall Magrath Road,5ac,12.97026,77.61079
CS-Genius Global School Kodathi,ar,12.87829,77.71695
CS-Girinagara Extension,it,12.94103,77.53887
CS-Gnana Bodhini High School,28h,12.92689,77.49488
CS-Gongatipura,3cu,12.96232,77.47196
CS-Good Earth Malhar,1kg,12.88562,77.46454
CS-Goraguntepalya (Towards Yashwanthapura TTMC),3lx,13.02855,77.54071
CS-Gottigere,3wr,12.85618,77.58881
CS-Govt Soap Factory,e2,13.0129,77.55438
CS-Gowdanapalya,11k,12.91167,77.55644
CS-Gruhalakshmi Layout,49c,13.02998,77.5007
CS-Gubbi Cross,19s,13.06491,77.65192
CS-Gunjuru,sq,12.92104,77.73657
CS-HAL ARDC,24q,12.96235,77.68876
CS-HAL Gnanajyothi School,1u,12.96033,77.69336
CS-HAL Hospital,26l,12.96247,77.66609
CS-HAL Main Gate,2g,12.95852,77.66605
CS-HAL Market/SBI Bank,3o4,12.96036,77.66622
CS-HAL Museum,zs,12.95461,77.6807
CS-HAL New Public School,4gg,12.95649,77.68224
CS-HP Petrol Bunk Coles Road,6lc,12.99667,77.6118
CS-Hado Siddapura,36l,12.89456,77.70111
CS-Hasanath College Dickenson Road,4l7,12.97925,77.61488
CS-Havanur Circle,36s,12.98791,77.53725
CS-Head Start School Kommasandra,20c,12.86047,77.73498
CS-Hegganahalli,1nu,13.00334,77.50445
CS-Heritage Estate,4o3,13.11811,77.57793
CS-Hosa Road,5vm,12.8702,77.65336
CS-Hosakerehalli Cross,144,12.93032,77.54355
CS-Hosakote KEB Circle,4oi,13.07202,77.78704
CS-IIHS Sadashivanagara,2b,13.00514,77.58126
CS-ISRO Karthik Nagara,5y5,12.96605,77.69507
CS-ISRO Murugeshpalya,418,12.95959,77.65423
CS-ISRO Quarters Jalahalli,5n,13.04416,77.53506
CS-ITPL,5iq,12.98597,77.74669
CS-Indian Airforce Yelahanka,3a4,13.13151,77.61551
CS-Indiranagara 12th Main,17n,12.9702,77.64128
CS-Indiranagara KFC,29f,12.98391,77.64048
CS-Indiranagara Police Station/KFC,31j,12.97839,77.64087
CS-Ittamadu Reliance Smart Point,4tx,12.91966,77.54229
CS-JINDAL,69l,13.22022,77.25403
CS-JP Nagara 15th Cross,4se,12.90625,77.58737
CS-JP Nagara Metro Station,4cw,12.90743,77.57305
CS-Jai Bharath Nagar,59x,13.00135,77.62958
CS-Jalahalli Cross,1r8,13.03983,77.5183
CS-Jalavayuvihar,1nr,13.02083,77.63695
CS-Jambu Savari Dinne,58n,12.86581,77.58105
CS-Janatha Bazar Banashankari,30i,12.92832,77.54603
CS-Jnanakshi Vidyaniketan School,5pr,12.9123,77.5138
CS-Jnanakshi Vidyaniketan School,9o,12.91204,77.51353
CS-Juggat Pharma,46a,12.89093,77.45496
CS-K Narayanapura,2qt,13.06312,77.64222
CS-K Narayanapura Cross,3j3,13.05283,77.64607
CS-KIMS Makkalakoota,4t6,12.9564,77.5741
CS-KLE Hostel Goraguntepalya,51q,13.03121,77.5356
CS-KLE Society College,3y4,12.96829,77.48136
CS-KR Puram Govt Hospital,5q9,13.00817,77.69265
CS-KR Puram Railway Station,5yn,13.00021,77.6771
CS-Kachamaranahalli,1ye,12.91285,77.73385
CS-Kacharakanahalli,31a,13.02108,77.62899
CS-Kadugodi Bus Stand,zf,12.99542,77.75912
CS-Kalkere,21j,13.03366,77.67471
CS-Kalyana Mantapa Koramangala,13c,12.93802,77.61858
CS-Kalyananagara Bus Stand,1nl,13.02629,77.63902
CS-Kamakya Talkies,zb,12.92384,77.55335
CS-Kamalanagara,2zb,12.99269,77.53084
CS-Kangovi PVT LTD Kukkanahalli,32t,13.15437,77.43828
CS-Kannamangala Railway Gollahalli,5y6,13.19626,77.41037
CS-Kannur Circle,4l3,13.09408,77.6547
CS-Karekal Cross,46z,13.06922,77.36141
CS-Kastruriba Road,1ix,12.97323,77.59504
CS-Kaval Byrasandra,3oz,13.0198,77.60739
CS-Kempegowda Bus Station,66k,12.97816,77.57068
CS-Kempegowda Institute Nursing Hostel,4wd,12.90391,77.52977
CS-Kempegowda Swimming Pool,1n5,12.94852,77.55908
CS-Kendriya Vidyalaya ASC Center,5wc,12.96701,77.61232
CS-Kendriya Vidyalaya DRDO Quarters,67u,12.98693,77.66389
CS-Kendriya Vidyalaya Halasuru (MEGC),407,12.98572,77.62529
CS-Kendriya Vidyalaya Malleshwara,1s6,13.0093,77.569
CS-Kengeri Bus Stand,f8,12.91372,77.48663
CS-Kengeri Railway Station,3lb,12.9169,77.4824
CS-Kengeri Work Shop,2qh,12.90143,77.47526
CS-Kittanahalli,5ob,13.00908,77.42024
CS-Kodathi Gate,6kk,12.8965,77.72033
CS-Koli Farm Gate,382,12.84146,77.58858
CS-Kommaghatta,2ql,12.93025,77.46481
CS-Konanakunte Cross,q7,12.88974,77.56351
CS-Kongovi PVT LTD Peenya,2o7,13.02156,77.51097
CS-Koramangala TTMC,1ot,12.94053,77.62488
CS-Kothnoor Dinne JP Nagara 8th Phase,rm,12.87514,77.58413
CS-Kudlu Slum Quaters,5ow,12.88971,77.65649
CS-Kumbalagodu,6bw,12.87822,77.44549
CS-LAKE VIEW appartment near beedi colony,5jb,12.92185,77.47579
CS-MEG Center,34j,12.98759,77.62236
CS-MS Palya,6o,13.08161,77.54819
CS-Madhavan Park,38q,12.93672,77.58392
CS-Mahathma Vidhyalaya Muttanalluru,4ht,12.83189,77.73495
CS-Makali,6lh,13.06604,77.45335
CS-Maligondanahalli,45k,12.91587,77.41527
CS-Malya Adithi School,4vd,13.1022,77.58288
CS-Mantri Green Apartment Sampige Talkies,1ef,12.99326,77.5703
CS-Marappa Garden,3mg,13.00467,77.59987
CS-Marathahalli Bridge,30,12.95697,77.70107
CS-Mariyannapalya,483,13.04943,77.61183
CS-Maruthi Mandira,347,12.96771,77.53615
CS-Mayohall,zn,12.97365,77.61075
CS-Miranda School,2w7,12.96813,77.6515
CS-Mount Carmel College,v,12.99299,77.58886
CS-Muneshwara Layout,2km,12.87435,77.47074
CS-Munnekolalu,47n,12.94859,77.708
CS-Munnekolalu Cross,25t,12.95637,77.70854
CS-Muttanallur Cross,4c5,12.88736,77.73827
CS-Mylasandra Cross,6b2,12.91814,77.4908
CS-NGV Koramangala,5rm,12.94477,77.62338
CS-NICE Jn Kengeri,3o6,12.90179,77.46856
CS-NP Medical Store RPC Layout,4pa,12.95883,77.53579
CS-Nagarabhavi Circle,4sm,12.95849,77.51892
CS-Nagavara Junction,1yp,13.0402,77.62433
CS-Nagavarapalya,31o,12.98949,77.66389
CS-Nanjappa Circle VRP,67q,13.06847,77.56031
CS-Narendra Tent Nagawara,5q0,13.02693,77.62032
CS-National Games Village Gate,6h6,12.94905,77.62029
CS-Nelamangala Bus Stand,ew,13.09814,77.39404
CS-Nethravathi Block,47c,12.94593,77.62266
CS-Oasis School,6nm,13.08918,77.66602
CS-Okalipuram,2q3,12.98258,77.56812
CS-Old Baiyappanahalli,4hh,12.99465,77.64401
CS-PAPAS Trading PVT LTD,yu,12.89131,77.59408
CS-PES College Hostel Kasavanahalli,3tx,12.89483,77.67326
CS-PES College ORR,yg,12.93507,77.53657
CS-PESIT College Electronic City,2yq,12.86114,77.66431
CS-Parachute,54a,13.01184,77.59594
CS-Park Hotel 1MG,66j,12.97399,77.61998
CS-Patalamma Temple,2p9,12.90461,77.53026
CS-Peenya 2nd Stage,44n,13.01064,77.50676
CS-People Tree Hospital Girinagara,2gt,12.9408,77.54305
CS-Platinum City Apartment,1ax,13.03501,77.53308
CS-Poornaprajna Layout,54f,12.9088,77.53588
CS-Pottery Town,2tc,12.99919,77.60854
CS-RBI Nrupatunga Road,2h,12.97203,77.58692
CS-RBI Quarters Cunningham Road,52v,12.98943,77.59587
CS-RK Hegde Nagara,4wa,13.07134,77.63371
CS-RR Medical College,x7,12.89659,77.46092
CS-RT Nagara Police Station,292,13.02495,77.59297
CS-RV College,4ce,12.92619,77.50096
CS-Raghavendra Swamy Temple,4pp,12.92944,77.53477
CS-Rajanukunte,5b8,13.17329,77.5643
CS-Ramakrishna Ashrama,zl,12.949,77.56765
CS-Ramamurthy Nagara Church,5y9,13.01173,77.67887
CS-Ramasandra,we,12.94537,77.46782
CS-Ramaswamipalya,5m,13.00979,77.63534
CS-Ravi Tent,za,12.95186,77.62108
CS-Renaissance prosperio apartment,24h,13.0645,77.59381
CS-SDM Hospital Anchepalya,j6,12.8939,77.45717
CS-SJS CBSE Gate-2,1mb,12.97086,77.5942
CS-Sacred Heart Girls' High School,56z,12.97055,77.60412
CS-Sanabil Educational Trust,1u8,12.84408,77.60353
CS-Sanjayanagara Vybhava Talkies,54o,13.03724,77.57447
CS-Sapthagiri Vidya Mandir,3gb,12.90739,77.70544
CS-Sarjapura Police Station,ay,12.86063,77.78326
CS-Seetharampalya Metro Station,29i,12.98013,77.7089
CS-Shahi Ex PVT Ltd U-7 Bellanduru,3o5,12.92286,77.67434
CS-Shahi Exports PVT Ltd Unit-7,l2,12.91939,77.66765
CS-Shakthi Hills Resort,561,12.91154,77.52778
CS-Shanthinagara Bus Station,5c9,12.95558,77.59223
CS-Shanthinikethana Layout,6o1,12.88296,77.60325
CS-Sheshadripuram Fortis Hospital,2gq,12.98523,77.58115
CS-Shilp Bekary,52,13.03779,77.65016
CS-Shirke KHB Quarters,3gu,12.93192,77.48811
CS-Shivanahalli 4th Main,3ml,12.98891,77.54702
CS-Shobha Hills View Apartment,8e,12.86497,77.51994
CS-Shubha Ultima Club House,5qa,13.08484,77.59945
CS-Sompura Gate,6o4,12.86216,77.77194
CS-Sony World 80ft Road Koramangala,5lv,12.93745,77.6266
CS-Sophiya School,6mu,12.98601,77.58863
CS-Sophiya School,ca,12.98587,77.58941
CS-Sri Mata Amritanandamayi Ashram,2b6,12.94598,77.48651
CS-Sri Rakum School,2q0,13.19525,77.58944
CS-Sri Sai Packaging Company,6an,12.99789,77.46336
CS-St Benidict School,1yj,12.88699,77.45886
CS-St Clare School,et,12.91469,77.44763
CS-St Johns High School Thomas Cafe,2s0,12.99477,77.60981
CS-St Johns Hospital,3v4,12.92875,77.61831
CS-St Johns Wood Apartment Tavarekere,1fx,12.93016,77.60971
CS-St Joseph Boys High School Musuem Road,62z,12.97169,77.60448
CS-St Vincent Palloti School,5t0,13.03191,77.65098
CS-Sultanpalya,6nc,13.0263,77.60402
CS-Swamy Vivekanada Metro Station,6j8,12.9859,77.64532
CS-Swastik Sheshadripuram,9p,12.98904,77.5743
CS-Syndicate Bank Colony Andraha,1c0,12.99775,77.48961
CS-TC Palya,6ae,13.02143,77.70038
CS-Tarapura Officer Colony,291,12.99015,77.61575
CS-Thanisandra,2ca,13.05642,77.63297
CS-Tharahunise,4pk,13.17873,77.58864
CS-Thataguni Sai Garden,zm,12.84329,77.51185
CS-The Light House International Academy,1d8,13.13359,77.72208
CS-Therelek Eng Pvt Limited Avverahalli,1pa,13.20153,77.2568
CS-Therelek Engineers PVT LTD Peenya,1fi,13.02376,77.51852
CS-Tin Factory,210,12.99692,77.66919
CS-Udbhava School Gulaganjanahalli,56h,12.92669,77.41745
CS-Ultra Violatt Automotion Jigani,4od,12.76577,77.64073
CS-Uttamasagar Hotel Banasawadi,33b,13.00931,77.64337
CS-Uttarahalli,54k,12.9051,77.54325
CS-Vaddarapalya (Anugraha Meadows),2ra,13.03893,77.64472
CS-Vaiyalikaval Police Station,3th,13.00189,77.57848
CS-Valley School Kanakapura Road,2xs,12.85463,77.50983
CS-Vasanth Enclave,17z,13.01167,77.59351
CS-Vidyaniketan School Hebbala,1j7,13.04756,77.59661
CS-Vidyaranyapura,2u3,13.08396,77.56027
CS-Vidyaranyapura Bus Stand,cv,13.08377,77.56096
CS-Vignananagara,3bw,12.9727,77.67807
CS-Vijayanagara,6n6,12.97179,77.53758
CS-Vinayakanagara Indira Canteen,171,12.89309,77.5431
CS-Viva Toyota Hunasamaranahalli,517,13.14944,77.61937
CS-Whispering Meadows Patelappa Layout,5ci,13.04649,77.57142
CS-Wilson Garden 10th Cross,50q,12.948,77.597
CS-Yashwanthapura TTMC,5v3,13.01789,77.55704
CS-Yelahanka Satellite Town,1om,13.09595,77.57902
CSI Hospital,2ej,12.98983,77.59938
CV Raman Nagara,3ni,12.98564,77.66401
CV Raman Nagara,3rs,12.98555,77.66382
CV Raman Nagara Railway Gate,2us,12.98353,77.67997
CV Raman Nagara Railway Gate,ho,12.98344,77.67973
CWS-3 BMTC,105,12.90408,77.4499
Cable Factory Ittagallapura,2jr,13.174,77.54049
Cable Factory Ittagallapura,z1,13.17404,77.54044
Cadabams,3dy,12.79785,77.52866
Cambridge North Campus,3p8,13.24591,77.6129
Cambridge North Campus,40g,13.24594,77.61288
Cambridge Public School Yalahanka,2qp,13.09417,77.58942
Canara Bank Begur,129,12.88518,77.62516
Canara Bank Begur,4mh,12.88501,77.62508
Canara Bank Hebbala,55w,13.03581,77.58886
Canara Bank Hebbala,56m,13.0357,77.58909
Canara Bank Koramangala,18v,12.93407,77.62369
Canara Bank Koramangala,5sn,12.93524,77.62426
Canara Bank Millers Road,1wj,12.99549,77.60169
Canara Bank Millers Road,21w,12.99556,77.60172
Canara Bank Rajajinagara 1st Block,m6,13.00089,77.55044
Canara Bank Subramanyanagara,d4,13.00466,77.55993
Canara Bank Subramanyanagara,gs,13.0047,77.55996
Canara Bank Tannery Road,2ew,13.00625,77.61245
Canara Bank Tannery Road,3mu,13.00615,77.61238
Canara Bank Vidyaranyapura,49y,13.07176,77.55618
Canara Bank Vidyaranyapura,4y3,13.07171,77.55609
Cantonment Railway Station,37e,12.99384,77.59712
Cantonment Railway Station,3kv,12.99475,77.59711
Cargo Village,2e8,13.19956,77.68225
Cargo Village,4xr,13.19967,77.68231
Carmel Convent Jayanagara,24w,12.92708,77.59711
Carmel Convent Jayanagara,38v,12.92711,77.59722
Carmel Convent Jayanagara,p2,12.92643,77.59724
Carmel Convent Jayanagara,w3,12.9268,77.59713
Carmelaram Railway Station,15m,12.9072,77.70537
Carmelram Gate,5w7,12.90343,77.70399
Carmelram Gate,63j,12.90352,77.70401
Carmelram Railway Station,4fl,12.90719,77.70544
Carmelram School Railway Gate,2xw,12.90975,77.70602
Carmelram School Railway Gate,67z,12.9095,77.7059
Cauvery Bhavana,11y,12.97438,77.58183
Cauvery Bhavana,3x5,12.97372,77.58157
Cauvery Nagara,2vr,12.99965,77.53073
Cauvery Nagara,5kk,12.99965,77.53048
Cauvery Public School Sahakarnagara,454,13.06061,77.58162
Cauvery School Sahakara Nagara,174,13.06102,77.58772
Cauvery School Sahakara Nagara,lp,13.06108,77.58779
Center for Learning School Campus Magadi Road,60q,12.98016,77.37505
Center for Learning School Campus Magadi Road,6lx,12.9795,77.37505
Central,379,12.99006,77.57199
Central,4ea,12.9898,77.57204
Central,5p3,12.98984,77.57181
Central Silk Board,1iz,12.91756,77.62379
Central Silk Board,1t6,12.91472,77.62452
Central Silk Board,2hl,12.91806,77.62215
Central Silk Board,428,12.91803,77.62355
Central Silk Board,4f9,12.91736,77.6236
Central Silk Board,5w5,12.91721,77.62225
Central Silk Board,ea,12.91816,77.62232
Central Silk Board,ul,12.91689,77.62177
Centre For Learning School,4vn,12.95914,77.30874
Chaithanya Samarpan Apartment,3m2,13.0207,77.76206
Chaithanya Samarpan Apartment,5kb,13.02191,77.76208
Chakkalatti,1j8,13.12255,77.66823
Chakkalatti,h2,13.12256,77.66836
Challaghatta,3dx,12.94606,77.64913
Challaghatta,in,12.94603,77.64913
Challahalli,3rc,13.21742,77.50635
Challahalli,435,13.21739,77.50643
Challahalli Colony,3a9,13.21663,77.50507
Challahalli Colony,5xy,13.21664,77.50502
Challeghatta,1i2,12.89669,77.45344
Challeghatta,44i,12.89663,77.45333
Chamarajapet,172,12.95627,77.56744
Chamarajapet,1or,12.95764,77.56736
Chamarajapet,2l6,12.96033,77.56255
Chamarajapet,2m7,12.95714,77.56801
Chamarajapet,5w9,12.95707,77.56705
Chambenahalli,3mi,12.8793,77.7617
Chambenahalli,3n5,12.87932,77.7616
Chamundeshwari Layout,5pe,13.06456,77.55949
Chamundeshwari Layout,bz,13.06488,77.55966
Chamundi Nagara,4or,13.01475,77.42046
Chamundi Nagara,5eo,13.01471,77.42038
Chandapura,3ix,12.80285,77.70476
Chandapura,3me,12.80258,77.70457
Chandapura,5hs,12.80227,77.7045
Chandapura,dj,12.80275,77.7046
Chandapura,lu,12.80181,77.70512
Chandapura KEB,3nf,12.79852,77.70598
Chandapura KEB,5oq,12.79869,77.70605
Chandra Layout,4q6,12.95925,77.52671
Chandra Layout 1st Stage,28k,12.95448,77.52244
Chandra Layout Circle,3k7,12.95815,77.5265
Chandra Layout Circle,5al,12.95817,77.52669
Chandra Nagara,3zp,12.90062,77.56512
Chandra Nagara Cross,1g6,12.89935,77.56117
Chandra Nagara Cross,49b,12.89938,77.56118
Chandra Public School,3n9,12.96029,77.52954
Chandra Public School,6hz,12.96046,77.52963
Chandrappa Circle,5yt,12.91059,77.36979
Chandrappa Circle,6le,12.91049,77.36962
Chandrappanagara,410,12.9413,77.60255
Chandrappanagara,4yn,12.9412,77.60247
Chandurayanahalli,2p2,12.97295,77.19659
Chandurayanahalli,r5,12.97286,77.19669
Channa Marayyanapalya,3pe,12.98134,77.36478
Channa Nayakanapalya,dn,13.04428,77.48518
Channadasipalya,2bg,12.97085,77.41485
Channadasipalya,6j4,12.97091,77.4147
Channadevi Agrahara,1wo,13.21878,77.45507
Channadevi Agrahara,2v1,13.21881,77.45509
Channadevi Agrahara,5um,13.21788,77.45816
Channadevi Agrahara Cross,26,13.2157,77.4556
Channadevi Agrahara Cross,5mb,13.21572,77.45564
Channahalli Gate,1tr,13.21278,77.75462
Channahalli Gate,44z,13.21287,77.75494
Channakeshavanagara,10d,12.87791,77.65491
Channakeshavanagara,1s2,12.8781,77.65481
Channammanakere Achukattu,5p7,12.9283,77.5565
Channammanapalya,95,12.76282,77.46397
Channammanapalya,q4,12.7628,77.46399
Channappa Circle,19b,12.91021,77.37336
Channapura Gate,38e,13.10304,77.86669
Channapura Gate,5on,13.10328,77.86663
Channarayapatna,1mr,13.24713,77.79652
Channarayapatna,4p0,13.24714,77.79645
Channarayapatna School,1,13.24409,77.79689
Channarayapatna School,66w,13.24392,77.79693
Channasandra,13u,13.20062,77.50809
Channasandra,2ay,12.90285,77.52139
Channasandra,3y2,12.90289,77.52134
Channasandra,8p,12.98348,77.7683
Channasandra,b5,12.90285,77.52129
Channasandra,cr,12.98334,77.76702
Channasandra,s,12.98349,77.76808
Channasandra Colony,28s,12.90331,77.5164
Channasandra Colony,29p,12.90335,77.51628
Channegowdana Doddy,323,12.80722,77.42929
Channegowdana Doddy,4q5,12.8072,77.42925
Channenahalli,4dh,12.97791,77.43037
Channenahalli,4v4,12.97786,77.43052
Channenahalli Arch,4nb,12.97987,77.43545
Channenahalli Arch,4zj,12.97977,77.43546
Chapparadakallu,28w,13.27904,77.62536
Chapparadakallu,cd,13.27935,77.62543
Chapradakallu,3iy,13.27924,77.62536
Charls School Toll Gate,1eo,13.00616,77.62099
Charls School Toll Gate,1wd,13.00616,77.62084
Chatra (Yeliyuru Gate),3gp,13.27743,77.75846
Chatra (Yeliyuru Gate),3h7,13.27744,77.75845
Cheemachanahalli,3vl,13.21772,77.78583
Cheemachanahalli,4lv,13.21814,77.78604
Cheemandahalli,1n8,13.05051,77.81179
Cheemandahalli,6in,13.05063,77.81171
Cheemandahalli Cross,18w,13.0449,77.81356
Cheemandahalli Cross,1ws,13.0449,77.81346
Cheemasandra,6l9,13.21365,77.86867
Cheemasandra,jl,13.04772,77.73938
Cheemasandra Gate,14r,13.03903,77.74008
Cheemasandra Gate,44j,13.03878,77.74042
Chelekere Circle,2s9,13.03074,77.64375
Chelekere Circle,3vj,13.0307,77.64396
Cheluvayyanapalya,4km,12.99222,77.26465
Chennathimmana Gollahalli Gate,3ot,13.14109,77.89828
Chennathimmana Gollahalli Gate,5p6,13.14104,77.89838
Chenuvalli,45e,13.19909,77.34717
Chikka Adugodi,2o8,12.92899,77.60943
Chikka Adugodi,37n,12.92894,77.60939
Chikka Arasanahalli,2vc,12.7335,77.38128
Chikka Banavara,19g,13.08053,77.50259
Chikka Banavara,1bn,13.08053,77.50255
Chikka Banavara,2y4,13.08057,77.5026
Chikka Basti,13a,12.94466,77.47504
Chikka Basti,30r,12.94453,77.4751
Chikka Basti Masjid,26d,12.94191,77.47411
Chikka Basti Masjid,3cy,12.94178,77.47403
Chikka Beguru,k,12.87873,77.63767
Chikka Belavagala Gate,1dz,13.19833,77.42683
Chikka Belavagala Gate,1xz,13.19828,77.4269
Chikka Bellanduru,4oj,12.91219,77.71442
Chikka Bellanduru,71,12.91227,77.71435
Chikka Bettahalli,185,13.08945,77.55629
Chikka Bettahalli,6kb,13.08949,77.55624
Chikka Bommasandra Cross,45g,13.09354,77.58248
Chikka Bommasandra Cross,5j2,13.09353,77.58251
Chikka Byalakere,4g9,13.11965,77.52161
Chikka Byalakere,5cl,13.11963,77.52156
Chikka Dasarahalli,4w0,12.89201,77.78445
Chikka Dasarahalli Cross,56t,12.88192,77.78783
Chikka Dasarahalli Cross,5wb,12.88197,77.78777
Chikka Devasandra KR Puram,121,13.00423,77.70605
Chikka Devasandra KR Puram,537,13.00442,77.70583
Chikka Dunnasandra,2bu,12.86297,77.76192
Chikka Gollarahatti,3k8,12.99142,77.4656
Chikka Gollarahatti,682,12.99147,77.46559
Chikka Gubbi,30d,13.0805,77.66627
Chikka Gubbi,4p1,13.08048,77.6663
Chikka Gubbi Cross,8f,13.08442,77.65434
Chikka Gubbi Cross,wm,13.08425,77.65417
Chikka Hagade,gg,12.7337,77.69927
Chikka Hagade,ka,12.73354,77.69923
Chikka Hagade Gate,6m,12.73141,77.70639
Chikka Hagade Gate,t7,12.73157,77.70647
Chikka Haralagere,4f0,13.20046,77.82497
Chikka Haralagere,5cg,13.20059,77.825
Chikka Hosahalli,61,12.70587,77.64521
Chikka Indluwadi,3pq,12.71634,77.64069
Chikka Indluwadi,4k,12.71624,77.64062
Chikka Kammanahalli,2xo,12.84966,77.59993
Chikka Kammanahalli,ek,12.84969,77.59996
Chikka Kodigehalli,417,12.97204,77.46491
Chikka Kodigehalli,uk,12.97198,77.46505
Chikka Kogilu Gate,cm,13.15719,77.82487
Chikka Kukkanahalli,41q,13.15745,77.44891
Chikka Kukkanahalli,46f,13.15753,77.44899
Chikka Kuntanahalli,1xe,12.79348,77.4384
Chikka Kuntanahalli,3lm,12.79354,77.43842
Chikka Kuntanahalli Cross,1eu,12.79216,77.43871
Chikka Kuntanahalli Cross,2u8,12.79221,77.43864
Chikka Madhure,258,13.2065,77.43977
Chikka Madhure,445,13.20647,77.4398
Chikka Mariyappanapalya,3hx,12.93991,77.40042
Chikka Mariyappanapalya,64n,12.94006,77.40037
Chikka Maskal,1ap,12.91971,77.33055
Chikka Nagamangala,194,12.86,77.69495
Chikka Nagamangala,2qq,12.85997,77.69504
Chikka Nagamangala Gate,328,12.85921,77.7036
Chikka Nagamangala Gate,4xc,12.85921,77.70367
Chikka Nallala,1bs,13.09694,77.89533
Chikka Nekkundi,4s8,12.92992,77.76569
Chikka Nekkundi,53g,12.92985,77.76583
Chikka Puttaiahnapalya,1to,13.09719,77.31911
Chikka Puttaiahnapalya,509,13.09713,77.3191
Chikka Sanne Gate,119,13.23038,77.69093
Chikka Sanne Gate,or,13.23031,77.69109
Chikka Tanda Manchenahalli Cross,3s4,13.03776,77.35001
Chikka Tanda Manchenahalli Cross,5fv,13.03781,77.35004
Chikka Tattamangala Gate,3pt,13.28015,77.76282
Chikka Tattamangala Gate,6oa,13.28017,77.76282
Chikka Thataguni,14o,12.84552,77.51418
Chikka Thataguni,1lg,12.84542,77.51416
Chikka Thirupathi,1fz,12.89536,77.86697
Chikka Thirupathi,5ec,12.89538,77.86704
Chikka Thirupathi,m1,12.89532,77.867
Chikka Thogurupalya,2q8,12.9562,77.28287
Chikka Thogurupalya,4yi,12.95628,77.28314
Chikka Tumkur,5xx,13.26368,77.53253
Chikka Tumkur,6l,13.26359,77.53248
Chikka Tumkur Cross,lz,13.25273,77.53883
Chikka Tumkur Cross,xc,13.25266,77.53886
Chikka Tumkur Lake,6hq,13.27744,77.51903
Chikka Tumkur Lake,rz,13.27726,77.51912
Chikka Veeraiahanapalya Cross,3ps,13.11427,77.43148
Chikka Veeraiahanapalya Cross,5hz,13.11416,77.4316
Chikka Veeraiahnapalya,309,12.94541,77.40052
Chikka Veeraiahnapalya,67t,12.94527,77.40047
Chikkaballapura,198,13.43768,77.73199
Chikkabanavara Railway Station,52s,13.07523,77.50453
Chikkabanavara Railway Station,65p,13.07562,77.50465
Chikkabidarakallu,3dl,13.05235,77.48774
Chikkabidarakallu,484,13.05196,77.48778
Chikkagattiganabbe,2ac,13.0416,77.79554
Chikkagattiganabbe,46l,13.04166,77.79549
Chikkahosahalli Gate,1js,13.20711,77.76307
Chikkahosahalli Gate,6jy,13.20739,77.7631
Chikkahullur,525,13.10508,77.82493
Chikkahullur,pe,13.1051,77.82485
Chikkajala,1e3,13.17273,77.63369
Chikkajala,3uz,13.17277,77.63318
Chikkallasandra,3yu,12.91507,77.55198
Chikkallasandra Aralimara,1k7,12.91184,77.55215
Chikkallasandra Aralimara,2tn,12.91168,77.55226
Chikkallasandra Aralimara,34l,12.91157,77.55238
Chikkallasandra Bank Colony,4wn,12.90914,77.54927
Chikkallasandra Bank Colony,86,12.90906,77.5491
Chikkamaranahalli,1o0,13.25705,77.76374
Chikkamaranahalli,4uj,13.09053,77.32314
Chikkamaranahalli,6h8,13.09039,77.32311
Chikkamaranahalli Colony,43,13.09665,77.32266
Chikkamaranahalli Colony,eg,13.0967,77.32268
Chikkammanapalya,58v,12.95049,77.42292
Chikkammanapalya,gf,12.95033,77.423
Chikkana Hosahalli,2tj,13.21479,77.58064
Chikkana Hosahalli,5zb,13.21474,77.58065
Chikkanahalli,1mq,13.13174,77.90309
Chikkanahalli,2io,13.18367,77.38426
Chikkanahalli,3w3,12.88186,77.35537
Chikkanahalli,4bl,12.93457,77.47251
Chikkanahalli,4mj,13.18394,77.68817
Chikkanahalli,4mw,12.71755,77.64681
Chikkanahalli,5ul,12.8816,77.35521
Chikkanahalli,ix,12.93444,77.47249
Chikkanahalli,kv,13.13171,77.90315
Chikkanahalli,vh,12.71757,77.64672
Chikkanahalli,vu,13.18385,77.6882
Chikkanahalli (Railway Gollahalli),1kr,13.18371,77.38434
Chikkanahalli Bande,4hq,13.17933,77.39042
Chikkanahalli Gate,20m,13.12559,77.90421
Chikkanahalli Gate,5bw,13.12584,77.90411
Chikkanahalli School,2x3,13.18267,77.3866
Chikkanahalli School,6hx,13.18269,77.3865
Chikkanayakanahalli,1hf,12.89231,77.69445
Chikkanayakanahalli,5cn,12.89224,77.69443
Chikkanayakanahalli Dinne,4jq,12.88392,77.69698
Chikkanayakanahalli Dinne,tp,12.88383,77.69706
Chikkegowdanapalya,52b,12.87877,77.51467
Chikkegowdanapalya,va,12.87872,77.51476
Chikkellur Cross,1sy,12.89183,77.42171
Chikkellur Cross,1ub,12.89191,77.42158
Chinnaiahnapalya,40m,12.72257,77.65589
Chinnakurchi,3ya,12.82741,77.45962
Chinnakurchi,4cq,12.82745,77.45962
Chinnappa Garden,1g2,13.0031,77.60353
Chinnappa Garden,2bv,13.00302,77.60354
Chinnappa Layout,4g3,13.02822,77.60958
Chinnaswamy Stadium,3x7,12.97742,77.59885
Chinnayyanapalya Silk Farm,5b4,12.85347,77.52329
Chinnayyanapalya Silk Farm,5i3,12.85375,77.52338
Chinnayyanapalya Silk Farm,679,12.85368,77.52303
Chinthala Madivala,38f,12.85266,77.71179
Chinthala Madivala Cross,43u,12.85459,77.71233
Chinthala Madivala Cross,4oh,12.85454,77.71223
Chirayu Pali Clinic,qy,13.04424,77.49068
Chitrakala parishath new Campus Srinivasapura,5xe,12.90329,77.50754
Chitrapura Mutt,42n,13.00564,77.56528
Chokkahalli Factory Gate,2fw,13.12052,77.81861
Chokkahalli Gate,4ly,13.11222,77.83213
Chokkahalli Gate,502,13.11222,77.83227
Chokkanahali Government School,1r0,13.11135,77.69137
Chokkanahali Government School,3gi,13.11131,77.69131
Chokkanahalli,1k2,13.18306,77.53932
Chokkanahalli,22g,13.08233,77.62497
Chokkanahalli,2f8,13.08235,77.62499
Chokkanahalli,4xb,13.18312,77.53915
Chokkanahalli,5vu,13.11358,77.68754
Chokkanahalli,8h,13.11348,77.68762
Chokkanahalli Gate,2yp,13.08471,77.63473
Chokkanahalli Gate,c3,13.08466,77.63487
Chokkasandra,34c,12.87066,77.7212
Chokkasandra,3r3,12.87059,77.7211
Chokkasandra Cross,1s4,12.87348,77.73409
Chokkasandra Cross,5or,12.87348,77.73397
Chokkasandra Cross,693,12.87355,77.73402
Chokkasandra Gate,1y8,13.18333,77.8867
Cholanayakanahalli,600,12.96049,77.35958
Cholanayakanahalli,6jx,12.96021,77.35949
Cholappanahalli Gate,2i6,13.1191,77.83923
Cholappanahalli Gate,6bf,13.11897,77.83919
Choodasandra,2bh,12.88926,77.68133
Choodasandra,40a,12.88928,77.68135
Choodasandra Circle,39b,12.88855,77.67294
Choodasandra Circle,f0,12.88853,77.67299
Choudappa Layout,4ar,13.10983,77.5281
Choudappa Layout,5he,13.10978,77.52807
Chowdanahalli,2z1,13.21432,77.62861
Chowdanahalli,6mw,13.21425,77.62856
Chowdappanahalli,45n,13.14844,77.75364
Chowdappanahalli,52f,13.14869,77.75372
Chowdareddy Circle,3jo,12.71119,77.69949
Chowdareddy Circle,5ck,12.71125,77.69931
Chowdary Line,33n,13.00521,77.63878
Chowdeshwari Nagara Thataguni,60o,12.84993,77.51893
Chowdeshwari Temple,14w,12.75911,77.69019
Chowdeshwari Temple,39s,12.99483,77.56638
Chowdeshwari Temple,4de,12.75914,77.69013
Chowdeshwari Temple B Channasandra,2zs,13.01094,77.65918
Chowdeshwarinagara,2i4,13.00054,77.52472
Chowdeshwarinagara,2ll,12.9975,77.39944
Chowdeshwarinagara,5w,13.0006,77.525
Chowdeshwarinagara,6or,12.99759,77.39939
Chowdeshwarinagara JP Park,2u4,13.03272,77.55408
Chowdeshwarinagara JP Park,6n7,13.03284,77.55432
Chowdeshwarinagara JP Park,yt,13.03281,77.55446
Chowdeshwarinagara Thataguni,4tr,12.84985,77.5188
Christ International School Cross,1v1,12.88589,77.89044
Christ International School Cross,4im,12.88587,77.89049
Christ School,1b,12.79915,77.51192
Christ School,539,12.79918,77.51189
Christal House Learning School,25g,13.0943,77.65168
Christal House Learning School,26w,13.09439,77.65173
Chudahalli,5m0,12.78225,77.48943
Chunchaghatta,192,12.88553,77.57489
Chunchaghatta,6la,12.88558,77.57487
Chunchanakuppe,5gd,12.91035,77.38608
Chunchanakuppe,5sb,12.91041,77.3863
Cipla Avalahalli,20u,13.03243,77.73148
Cipla Avalahalli,4wk,13.03263,77.73114
Cipla Avalahalli,55x,13.03229,77.73139
City Civil Court,2gv,12.97343,77.58243
City Civil Court (CHAKRA),1n7,12.97339,77.58237
City Engineering College Vasantha Vallabha Nagara,52u,12.8875,77.55042
City Engineering College Vasantha Vallabha Nagara,5vh,12.88746,77.55039
Clarence School,x1,13.00309,77.61666
Classic Archid Apartment Kothanuru,57m,12.87476,77.59214
Cloride Metal,3ft,12.93954,77.91152
Cloride Metal,5vf,12.93964,77.91132
Coca Cola Byramangala,3ok,12.78086,77.40412
Coca Cola Byramangala,4yg,12.78103,77.40411
Coffee Board Layout,47v,13.04853,77.60919
Coffee Board Layout,5bd,13.04843,77.60914
Coffee Day Hope Farm,170,12.97998,77.75162
Coffee Day Hope Farm,6gc,12.97987,77.75168
Cohera,661,13.17322,77.74122
Coles Park,1fq,12.99534,77.60829
Coles Park,1zv,12.99308,77.60928
Coles Park,2rm,12.99573,77.60668
Coles Park,4ph,12.99301,77.60927
Coles Road,1qs,12.99632,77.61247
Coles Road,4wl,12.99661,77.61204
College Cross Byadarahalli,28o,12.98569,77.47952
College Cross Byadarahalli,5hk,12.98552,77.47964
Commando Hospital,2fl,12.96364,77.62641
Commando Hospital,5ba,12.96271,77.62756
Commercial Street,49s,12.97994,77.60981
Commercial Street,4hz,12.98163,77.60822
Concord Apartment Electronic City,2ig,12.84061,77.65172
Concord Apartment Electronic City,6k5,12.84056,77.65185
Concorde Napa Valley,3y3,12.78852,77.5121
Corporation,2qm,12.96701,77.58822
Corporation,2se,12.9648,77.58778
Corporation,3h4,12.9682,77.58936
Corporation,6ld,12.96839,77.58675
Country Club Bagaluru,4yx,13.12356,77.63933
Country Club Bagaluru,50i,13.12348,77.63937
Cox Town,1s7,12.99629,77.62153
Cox Town,kt,12.99648,77.62157
Cross Kenganahalli,2gj,13.04047,77.42686
Cross Kenganahalli,3ck,13.04045,77.42692
Crown Plaza,10p,12.85092,77.66
Crown Plaza,4y9,12.85082,77.66023
Crystal Apartment Sarjapura Road,3wn,12.86759,77.76725
Crystal Apartment Sarjapura Road,5sr,12.8677,77.76709
Cubbon Park Metro Station,29w,12.98068,77.59835
Cubbon Park Metro Station,2f7,12.98083,77.59722
Cubbon Park Metro Station,3if,12.98068,77.59831
Cunningham Road,20e,12.98787,77.59427
C Q A L,3ay,13.01178,77.59326
D Cross Doddaballapura,18k,13.3066,77.54574
D Cross Doddaballapura,1ud,13.30659,77.54594
D Cross Doddaballapura,hb,13.30654,77.54584
D Group Employees Layout,15x,13.09134,77.69091
D Group Employees Layout,3f9,13.09127,77.69089
D Group Employees Layout Srigandhada Kaval,1at,12.97813,77.49874
D Group Employees Layout Srigandhada Kaval,2zy,12.97808,77.49874
D Hosahalli,3te,12.96839,77.83253
D Hosahalli,498,12.96831,77.83242
D Shettihalli Gate,3t6,13.15048,77.86833
D Souza Circle,627,12.96755,77.61106
D Souza Nagara,59a,12.93179,77.53331
D Souza Nagara,8d,12.93199,77.53289
DEPOT-19 Gate,4r5,12.84691,77.67192
DHFL,1k5,13.19963,77.69561
DHFL,4uk,13.19945,77.69561
DLF Home Town,5ql,12.8758,77.61776
DLF Home Town,6f3,12.87565,77.61775
DRDO 2nd Stage,1o1,12.9859,77.67917
DRDO Quarters,14z,12.98551,77.66147
DRDO Quarters,60h,12.98546,77.66133
DSC HAL GM Palya,5we,12.97659,77.66824
DUO Heights Layout,37s,12.89486,77.61463
DUO Heights Layout,58,12.89486,77.61468
Daadinayakana Doddy,6ok,12.83955,77.94408
Dabaspete,2eg,13.2277,77.24144
Dabaspete,2ov,13.22778,77.2418
Dabbaguli,49i,12.89092,77.32275
Dabbaguli Gate,40l,12.87007,77.32804
Dabbaguli Gate,4qu,12.87,77.32808
Dabbaguli Gate-2,485,12.87945,77.31628
Dalai Lama College,55e,12.85049,77.42456
Dalai Lama College,6hh,12.85056,77.42409
Dalmia Circle,3ng,12.90618,77.59504
Dalmia Circle,692,12.90697,77.595
Dalmia Circle,6fb,12.90639,77.59505
Damodhar Nagara,3l5,12.9536,77.79708
Dandiganahalli,9r,13.30949,77.76763
Dandupalya,1vr,13.07461,77.81115
Dandupalya,2wc,13.07455,77.81156
Dandupalya Cross,1z5,13.07636,77.81145
Dandupalya Cross,4g7,13.07638,77.81149
Dandupalya Gate,5y1,13.07689,77.80804
Dandupalya Gate,66o,13.07728,77.80786
Dargha,11o,13.28746,77.77446
Dargha,5u1,13.28742,77.77445
Darshan Farm,li,12.9313,77.52682
Dasanapura,1aw,13.07542,77.43636
Dasanapura,2j,13.07523,77.43599
Dasanapura,5jz,12.74761,77.77447
Dasanayakanahalli,5s0,13.11823,77.68833
Dasappanapalya,lq,13.07933,77.50587
Dasappanapalya,y2,13.07935,77.50591
Dasarahalli,3nc,13.09995,77.83616
Dasarahalli,hm,13.09998,77.83611
Dasarahalli Hebbala,1a9,13.05631,77.61148
Dasarahalli Hebbala,363,13.05633,77.61159
Dasarahalli Hebbala,393,13.05627,77.61157
Dasarahalli Kere,5h6,12.98517,77.54417
Dasarahalli Kere,6mh,12.98595,77.54179
Dasarahalli Road Junction,1fp,13.05583,77.5941
Dasarahalli Road Junction,1sz,13.05573,77.59451
Dasegowdarapalya,1j3,13.02347,77.39426
Dasegowdarapalya,3zj,13.02341,77.39444
Dasenahalli Cross,3w5,13.14087,77.46523
Dasenahalli Cross,5bs,13.14091,77.46519
Dattatreya Peeta Doddagubbi,1w,13.06739,77.66465
Dattatreya Peeta Doddagubbi,4tf,13.06732,77.66465
Dattatreya Temple Malleshwara,3cn,12.99893,77.57479
Dattatreya Temple Malleshwara,6fm,12.99895,77.57462
Dayananda Sagar College,1pk,12.90948,77.56553
Dayananda Sagar College,52e,12.90949,77.5654
Dayananda Sagar Vidya Samste,15g,12.82479,77.51377
Dayananda Sagar Vidya Samste,2uu,12.82498,77.51373
Deccan,15l,12.90255,77.62745
Deccan,3o9,12.90247,77.62741
Deepa Complex,1c9,12.96659,77.50483
Deepa Complex,6gf,12.96636,77.50508
Deepa Complex,6m8,12.96698,77.50519
Deepak Factory,2lq,13.04704,77.50159
Deepak Factory,5l9,13.04749,77.50135
Deepak Nursing Home,1d7,12.92598,77.57711
Deepak Nursing Home,482,12.92518,77.57699
Deepanjalinagara,4ru,12.95375,77.53624
Deepanjalinagara,65,12.9514,77.53724
Dell,1hy,12.95275,77.64044
Dell Domluru,21b,12.95291,77.64065
Depot-02 Shanthinagara,481,12.95442,77.59488
Depot-03 Shanthinagara,4dr,12.95532,77.596
Depot-04 Jayanagara,12p,12.92489,77.59346
Depot-06 Gate,1go,12.98255,77.63434
Depot-06 Gate,2rs,12.9824,77.6344
Depot-06 Indiranagara,v9,12.98189,77.63446
Depot-07 Subhashnagara,3ro,12.97901,77.57186
Depot-08 Yashawanthapura,3qo,13.01777,77.55551
Depot-09 Peenya,19l,13.02039,77.50022
Depot-10 Gate,11l,13.02542,77.63059
Depot-10 Gate,39o,13.02766,77.63242
Depot-10 Gate,4kf,13.0255,77.63049
Depot-10 Gate,ck,13.02577,77.63181
Depot-10 Hennuru,405,13.02568,77.63233
Depot-11 Puttenahalli,45p,13.11061,77.57947
Depot-12 Gate,21k,12.90471,77.47084
Depot-12 Gate,5gk,12.90481,77.47068
Depot-12 Kengeri,5c1,12.90424,77.4727
Depot-13 Kathriguppe,3qz,12.92493,77.55434
Depot-14 Gate,3lg,13.02844,77.5937
Depot-14 RT Nagara,2z2,13.02868,77.59328
Depot-15 Koramangala,bp,12.9414,77.62487
Depot-16 Deepanajalinagara,65d,12.95136,77.53703
Depot-17 Chandra Layout,48p,12.95897,77.52733
Depot-18 White Field,sp,12.97686,77.72596
Depot-19 Electronic City,6ge,12.8474,77.67229
Depot-20 Banashankari,6v,12.91871,77.57086
Depot-21 BEML Layout,12i,12.90673,77.52042
Depot-22 Peenya,2u6,13.01975,77.50193
Depot-23 Kalyana Nagara,1va,13.02655,77.63895
Depot-24 Gate,61u,13.00341,77.6825
Depot-24 Gate,6jl,13.00331,77.6825
Depot-24 ITI Layout,kn,13.00163,77.68359
Depot-25 Gate,1f5,12.91936,77.64255
Depot-25 Gate,2vq,12.91956,77.64495
Depot-25 Gate (Central Silk Board),4dw,12.91952,77.64294
Depot-25 HSR Layout,je,12.91986,77.64457
Depot-26 Yeshawanthapura,5e9,13.0186,77.55537
Depot-27 Gate,3yf,12.78003,77.63445
Depot-27 Gate,46j,12.7801,77.63448
Depot-27 Jigani,19d,12.78019,77.63446
Depot-28 Hebbala,3b0,13.04355,77.59335
Depot-29 KR Puram,651,13.00444,77.69175
Depot-30 Puttenahalli,414,13.11009,77.57762
Depot-31 Gate,2qv,12.99311,77.5213
Depot-31 Gate,2t9,12.99306,77.52146
Depot-31 Summanahalli,hy,12.99285,77.52221
Depot-32 Suryacity,2h4,12.79047,77.70677
Depot-33 Poornapragna layout,10v,12.90974,77.53606
Depot-34 Gate,6d9,12.87021,77.58571
Depot-34 Gate,ku,12.87023,77.58567
Depot-34 Kottanur,6g1,12.87168,77.58616
Depot-35 Gate,1s,12.9726,77.44268
Depot-35 Kannalli,40p,12.97253,77.44263
Depot-36 Bidadi,1g3,12.76888,77.41428
Depot-36 Gate,1db,12.7684,77.41397
Depot-36 Gate,1gq,12.76845,77.41403
Depot-37 Kengeri,189,12.91344,77.48793
Depot-38 Chikkanagamangala,49k,12.85019,77.69176
Depot-38 Gate,2ir,12.84902,77.69251
Depot-38 Gate,2qx,12.84901,77.69247
Depot-39 Gate,2ec,13.06905,77.78178
Depot-39 Hoskote,5ch,13.06832,77.78173
Depot-40 Dasanapura,5xg,13.07402,77.44491
Depot-40 Gate,2zx,13.06872,77.44766
Depot-41 Gate,2ob,12.9213,77.74239
Depot-41 Gate,jc,12.92131,77.74234
Depot-41 Gunjuru,4f8,12.92231,77.7433
Depot-42 Gate  Arrival,5z6,12.89538,77.70565
Depot-42 Gate Departure,1y6,12.89553,77.7057
Depot-42 Kodathi,3ui,12.89596,77.7041
Depot-43 Gate,1lr,13.06595,77.42564
Depot-43 Gate,4e2,13.06565,77.4255
Depot-43 Shivanapura,61y,13.0668,77.42575
Depot-44 Anjanapura,6j6,12.85538,77.56969
Depot-45 Gate,1i,13.0829,77.55072
Depot-45 Gate,33v,13.08298,77.55066
Depot-45 MS Palya,u9,13.08431,77.55046
Depot-46 Gate,nu,13.18748,77.5634
Depot-46 Sadenahalli,5ie,13.18393,77.56681
Depot-47 Gate,3vq,13.08467,77.73201
Depot-47 Manduru,3or,13.08535,77.73146
Depot-48 Byrathibande,9v,13.07668,77.65422
Depot-48 Gate,40n,13.07752,77.65472
Depot-48 Gate,tn,13.07756,77.65467
Depot-49 Bidadi,1vl,12.80177,77.39285
Depot-50 Devanahalli,3jw,13.24698,77.71744
Depot-51 Sadaramangala,30h,12.99672,77.72654
Depot-51 Sadaramangala Arrival,4ls,12.99596,77.72624
Depot-51 Sadaramangala Departure,hg,12.99606,77.72622
Depot-52 Arrival,3y,13.15738,77.65908
Depot-52 Departure,5oc,13.15742,77.65912
Depot-52 Huttanahalli,5zn,13.15723,77.65873
Depot-9,1yx,13.02036,77.50051
Deshnarayanaswamy Temple,5ca,13.13719,77.74576
Deshnarayanaswamy Temple,7u,13.13726,77.74569
Design Global Mavallipura,227,13.1313,77.53093
Design Global Mavallipura,24f,13.13126,77.53097
Deva Machohalli Cross,20h,12.96552,77.3811
Deva Machohalli Cross,2y6,12.96536,77.38112
Devadiga Soudha,2j0,12.92658,77.52002
Devadiga Soudha,554,12.9265,77.51998
Devaganahalli,5ne,13.2531,77.64887
Devaganahalli,a8,13.25331,77.64888
Devagere,3e5,12.85669,77.46556
Devagere,5rg,12.85653,77.4657
Devagere Colony,2an,12.85357,77.45801
Devagere Colony,4yk,12.85346,77.45795
Devagere Cross,4b6,12.86428,77.45713
Devagere Cross,6gs,12.86431,77.45713
Devaiah Park,4uq,12.99628,77.56424
Devaiah Park,5z7,12.99642,77.56419
Devalapura,3to,12.98457,77.82944
Devalapura,55j,12.98466,77.82936
Devalapura Circle,3li,12.98272,77.82842
Devalapura Circle,59z,12.98268,77.82829
Devalapura Circle,5sv,12.98277,77.82836
Devanagondi,1qe,12.97407,77.83869
Devanagondi,521,12.97405,77.83873
Devanagondi IOC,3zz,12.98789,77.83736
Devanagondi IOC,fp,12.98799,77.83728
Devanagondi LPG,5gb,12.98996,77.83009
Devanagondi LPG,6g8,12.98996,77.83018
Devanagondi Railway Station,2np,12.98534,77.82956
Devanagondi Railway Station,4co,12.98547,77.82975
Devanagundi Cross,4a1,13.06044,77.82737
Devanagundi Cross,4r0,13.06038,77.82715
Devanahalli Bypass NH-7,1oz,13.24207,77.70346
Devanahalli Bypass NH-7,3d3,13.24231,77.70399
Devanahalli Cross Sulibele,3aa,13.18495,77.79797
Devanahalli Cross Sulibele,3jm,13.18487,77.79804
Devanahalli Cross Sulibele,4y0,13.18482,77.79795
Devanahalli Govt Hospital,3m3,13.25751,77.72657
Devanahalli Govt Hospital,533,13.25748,77.72655
Devanahalli New Bus Station,1y9,13.24528,77.71281
Devanahalli New Bus Station,5qu,13.24543,77.71274
Devanahalli Old Bus Stand,1m1,13.24853,77.71547
